[
  {
    "datasetid": "sites-disposant-du-service-paris-wi-fi",
    "recordid": "eea51f7d4bfd1e4cc09d124dc9ccac0b9d87557e",
    "fields": {
      "cp": "75001",
      "nom_site": "MAISON DE LA VIE ASSOCIATIVE ET CITOYENNE  1",
      "arc_adresse": "5B RUE DU LOUVRE",
      "geo_point_2d": [48.8618833615, 2.341156755],
      "nombre_de_borne_wifi": 2,
      "idpw": "PW0148",
      "geo_shape": {
        "type": "Point",
        "coordinates": [2.34115675500317, 48.8618833615023]
      },
      "etat2": "Op\u00e9rationnel"
    },
    "geometry": {
      "type": "Point",
      "coordinates": [2.341156755, 48.8618833615]
    },
    "record_timestamp": "2020-02-12T08:00:33.449+01:00"
  },
  {
    "datasetid": "sites-disposant-du-service-paris-wi-fi",
    "recordid": "4c31e21df42df7d2a74372d5d7bb87ecc7040256",
    "fields": {
      "cp": "75001",
      "nom_site": "MAIRIE DU 1 ER",
      "arc_adresse": "4 PLACE DU LOUVRE",
      "geo_point_2d": [48.8600835266, 2.34106447616],
      "nombre_de_borne_wifi": 2,
      "idpw": "PW0127",
      "geo_shape": {
        "type": "Point",
        "coordinates": [2.341064476164004, 48.860083526572126]
      },
      "etat2": "Op\u00e9rationnel"
    },
    "geometry": {
      "type": "Point",
      "coordinates": [2.34106447616, 48.8600835266]
    },
    "record_timestamp": "2020-02-12T08:00:33.449+01:00"
  },
  {
    "datasetid": "sites-disposant-du-service-paris-wi-fi",
    "recordid": "bc6b6d561efe6c463298dfbf300ee7094795c789",
    "fields": {
      "cp": "75001",
      "nom_site": "JARDIN NELSON MANDELA",
      "arc_adresse": "32 RUE BERGER",
      "geo_point_2d": [48.8614694222, 2.34630372401],
      "nombre_de_borne_wifi": 2,
      "idpw": "PW0110",
      "geo_shape": {
        "type": "Point",
        "coordinates": [2.34630372400731, 48.86146942215447]
      },
      "etat2": "Op\u00e9rationnel"
    },
    "geometry": {
      "type": "Point",
      "coordinates": [2.34630372401, 48.8614694222]
    },
    "record_timestamp": "2020-02-12T08:00:33.449+01:00"
  },
  {
    "datasetid": "sites-disposant-du-service-paris-wi-fi",
    "recordid": "d23aaad3de33ad97d50f9f20330c6f669ad5e943",
    "fields": {
      "cp": "75001",
      "nom_site": "MEDIATHEQUE MUSICALE DE PARIS (HALLES)",
      "arc_adresse": "8 PORTE SAINT EUSTACHE",
      "geo_point_2d": [48.862650133, 2.34591610501],
      "nombre_de_borne_wifi": 2,
      "idpw": "PW0020",
      "geo_shape": {
        "type": "Point",
        "coordinates": [2.345916105005208, 48.862650133028886]
      },
      "etat2": "Op\u00e9rationnel"
    },
    "geometry": {
      "type": "Point",
      "coordinates": [2.34591610501, 48.862650133]
    },
    "record_timestamp": "2020-02-12T08:00:33.449+01:00"
  },
  {
    "datasetid": "sites-disposant-du-service-paris-wi-fi",
    "recordid": "706dda3c81d55e4866f171a56c432a56bed5eed3",
    "fields": {
      "cp": "75001",
      "nom_site": "BERGES RIVE DROITE - PONT NEUF",
      "arc_adresse": "BERGE DE SEINE RIVE DROITE - SORTIE TUNNEL TUILERIETUILERIES",
      "geo_point_2d": [48.8593733254, 2.33582235605],
      "nombre_de_borne_wifi": 1,
      "idpw": "PW0149",
      "geo_shape": {
        "type": "Point",
        "coordinates": [2.335822356054447, 48.85937332543368]
      },
      "etat2": "Op\u00e9rationnel"
    },
    "geometry": {
      "type": "Point",
      "coordinates": [2.33582235605, 48.8593733254]
    },
    "record_timestamp": "2020-02-12T08:00:33.449+01:00"
  },
  {
    "datasetid": "sites-disposant-du-service-paris-wi-fi",
    "recordid": "dd27eea0d4a15d61bb1533fe70b0f2a337f1853a",
    "fields": {
      "cp": "75001",
      "nom_site": "PREFOURRIERE LOUVRE",
      "arc_adresse": "1 PLACE DU LOUVRE",
      "geo_point_2d": [48.8593248228, 2.34073842112],
      "nombre_de_borne_wifi": 1,
      "geo_shape": {
        "type": "Point",
        "coordinates": [2.340738421116781, 48.859324822757436]
      },
      "etat2": "En \u00e9tude"
    },
    "geometry": {
      "type": "Point",
      "coordinates": [2.34073842112, 48.8593248228]
    },
    "record_timestamp": "2020-02-12T08:00:33.449+01:00"
  },
  {
    "datasetid": "sites-disposant-du-service-paris-wi-fi",
    "recordid": "69938668b76c52b9149ede77f0f81b8649218962",
    "fields": {
      "cp": "75001",
      "nom_site": "MEDIATHEQUE LA CANOPEE LA FONTAINE",
      "arc_adresse": "10 PASSAGE DE LA CANOPEE",
      "geo_point_2d": [48.8618194855, 2.34764390328],
      "nombre_de_borne_wifi": 5,
      "idpw": "PW0143",
      "geo_shape": {
        "type": "Point",
        "coordinates": [2.347643903283826, 48.86181948548023]
      },
      "etat2": "Op\u00e9rationnel"
    },
    "geometry": {
      "type": "Point",
      "coordinates": [2.34764390328, 48.8618194855]
    },
    "record_timestamp": "2020-02-12T08:00:33.449+01:00"
  },
  {
    "datasetid": "sites-disposant-du-service-paris-wi-fi",
    "recordid": "48bafd0cfce6163c04d0af155404e9ee2ced2f8d",
    "fields": {
      "cp": "75001",
      "nom_site": "BERGES RIVE DROITE - PONT AU CHANGE",
      "arc_adresse": "BERGE DE SEINE RIVE DROITE - SORTIE CHATELET",
      "geo_point_2d": [48.8574278537, 2.34701992447],
      "nombre_de_borne_wifi": 1,
      "idpw": "PW0193",
      "geo_shape": {
        "type": "Point",
        "coordinates": [2.347019924471973, 48.85742785373788]
      },
      "etat2": "Op\u00e9rationnel"
    },
    "geometry": {
      "type": "Point",
      "coordinates": [2.34701992447, 48.8574278537]
    },
    "record_timestamp": "2020-02-12T08:00:33.449+01:00"
  },
  {
    "datasetid": "sites-disposant-du-service-paris-wi-fi",
    "recordid": "98a3c5f3c348b9fe36bad4f9a837b547030dc801",
    "fields": {
      "cp": "75001",
      "nom_site": "BIBLIOTHEQUE DU CINEMA FRANCOIS TRUFFAUT",
      "arc_adresse": "14 RUE DES PROUVAIRES",
      "geo_point_2d": [48.8614889106, 2.34415410951],
      "nombre_de_borne_wifi": 1,
      "idpw": "PW0112",
      "geo_shape": {
        "type": "Point",
        "coordinates": [2.344154109508663, 48.86148891058231]
      },
      "etat2": "Op\u00e9rationnel"
    },
    "geometry": {
      "type": "Point",
      "coordinates": [2.34415410951, 48.8614889106]
    },
    "record_timestamp": "2020-02-12T08:00:33.449+01:00"
  },
  {
    "datasetid": "sites-disposant-du-service-paris-wi-fi",
    "recordid": "34da069f8b309010ba39725563f07338493720d3",
    "fields": {
      "cp": "75001",
      "nom_site": "BERGES RIVE DROITE - PONT AU CHANGE",
      "arc_adresse": "BERGE DE SEINE RIVE DROITE - VIA FERRATA",
      "geo_point_2d": [48.8575127839, 2.34656304265],
      "nombre_de_borne_wifi": 1,
      "idpw": "PW0158",
      "geo_shape": {
        "type": "Point",
        "coordinates": [2.346563042652777, 48.857512783868636]
      },
      "etat2": "Op\u00e9rationnel"
    },
    "geometry": {
      "type": "Point",
      "coordinates": [2.34656304265, 48.8575127839]
    },
    "record_timestamp": "2020-02-12T08:00:33.449+01:00"
  },
  {
    "datasetid": "sites-disposant-du-service-paris-wi-fi",
    "recordid": "623bb64a89220c58b714a2fe7482e27534b8a874",
    "fields": {
      "cp": "75002",
      "nom_site": "MAIRIE DU 2 EME",
      "arc_adresse": "8 RUE DE LA BANQUE",
      "geo_point_2d": [48.8668345275, 2.34045079989],
      "nombre_de_borne_wifi": 1,
      "idpw": "PW0034",
      "geo_shape": {
        "type": "Point",
        "coordinates": [2.340450799891371, 48.86683452754676]
      },
      "etat2": "Op\u00e9rationnel"
    },
    "geometry": {
      "type": "Point",
      "coordinates": [2.34045079989, 48.8668345275]
    },
    "record_timestamp": "2020-02-12T08:00:33.449+01:00"
  },
  {
    "datasetid": "sites-disposant-du-service-paris-wi-fi",
    "recordid": "9e597951e7764ad0cc0eb991d6fc218ff3802dbb",
    "fields": {
      "cp": "75002",
      "nom_site": "MAISON DE LA VIE ASSOCIATIVE ET CITOYENNE 2",
      "arc_adresse": "23 RUE GRENETA",
      "geo_point_2d": [48.8650814049, 2.35054940319],
      "nombre_de_borne_wifi": 1,
      "idpw": "PW0036",
      "geo_shape": {
        "type": "Point",
        "coordinates": [2.35054940319118, 48.86508140493411]
      },
      "etat2": "Op\u00e9rationnel"
    },
    "geometry": {
      "type": "Point",
      "coordinates": [2.35054940319, 48.8650814049]
    },
    "record_timestamp": "2020-02-12T08:00:33.449+01:00"
  },
  {
    "datasetid": "sites-disposant-du-service-paris-wi-fi",
    "recordid": "25fb0ff8959f98f0cc3f503492df174570862fe1",
    "fields": {
      "cp": "75002",
      "nom_site": "CENTRE SPORTIF JEAN DAME",
      "arc_adresse": "17 RUE LEOPOLD BELLAN",
      "geo_point_2d": [48.8665683485, 2.34550650532],
      "nombre_de_borne_wifi": 1,
      "idpw": "PW0082",
      "geo_shape": {
        "type": "Point",
        "coordinates": [2.345506505320458, 48.86656834849909]
      },
      "etat2": "Op\u00e9rationnel"
    },
    "geometry": {
      "type": "Point",
      "coordinates": [2.34550650532, 48.8665683485]
    },
    "record_timestamp": "2020-02-12T08:00:33.449+01:00"
  },
  {
    "datasetid": "sites-disposant-du-service-paris-wi-fi",
    "recordid": "7341b0115b1570747a2742bed2ad2f9c3c814303",
    "fields": {
      "cp": "75002",
      "nom_site": "BIBLIOTHEQUE CHARLOTTE DELBO",
      "arc_adresse": "2 PASSAGE DES PETITS PERES",
      "geo_point_2d": [48.8665075801, 2.34043449149],
      "nombre_de_borne_wifi": 2,
      "idpw": "PW0134",
      "geo_shape": {
        "type": "Point",
        "coordinates": [2.340434491489431, 48.866507580054055]
      },
      "etat2": "Op\u00e9rationnel"
    },
    "geometry": {
      "type": "Point",
      "coordinates": [2.34043449149, 48.8665075801]
    },
    "record_timestamp": "2020-02-12T08:00:33.449+01:00"
  },
  {
    "datasetid": "sites-disposant-du-service-paris-wi-fi",
    "recordid": "98a9cc89a5a0206de9c78760d19f55a74cacfe73",
    "fields": {
      "cp": "75003",
      "nom_site": "MAISON DE LA VIE ASSOCIATIVE ET CITOYENNE 3/4",
      "arc_adresse": "3 RUE EUGENE SPULLER",
      "geo_point_2d": [48.8640250421, 2.36218654489],
      "nombre_de_borne_wifi": 1,
      "idpw": "PW0019-1",
      "geo_shape": {
        "type": "Point",
        "coordinates": [2.362186544891376, 48.86402504205692]
      },
      "etat2": "Op\u00e9rationnel"
    },
    "geometry": {
      "type": "Point",
      "coordinates": [2.36218654489, 48.8640250421]
    },
    "record_timestamp": "2020-02-12T08:00:33.449+01:00"
  },
  {
    "datasetid": "sites-disposant-du-service-paris-wi-fi",
    "recordid": "4b35e1471a714cd960ddf17d549c4c9b8bb490a2",
    "fields": {
      "cp": "75003",
      "nom_site": "MAIRIE DU 3 EME",
      "arc_adresse": "2 RUE EUGENE SPULLER",
      "geo_point_2d": [48.8639920263, 2.36153196157],
      "nombre_de_borne_wifi": 2,
      "idpw": "PW0019",
      "geo_shape": {
        "type": "Point",
        "coordinates": [2.361531961565591, 48.8639920263]
      },
      "etat2": "Op\u00e9rationnel"
    },
    "geometry": {
      "type": "Point",
      "coordinates": [2.36153196157, 48.8639920263]
    },
    "record_timestamp": "2020-02-12T08:00:33.449+01:00"
  },
  {
    "datasetid": "sites-disposant-du-service-paris-wi-fi",
    "recordid": "8ae3154580038be8dab07fce5c1102d3e253e3a2",
    "fields": {
      "cp": "75003",
      "nom_site": "BOURSE DU TRAVAIL ANNEXE TURBIGO",
      "arc_adresse": "67 RUE TURBIGO",
      "geo_point_2d": [48.8660165781, 2.35800477569],
      "nombre_de_borne_wifi": 1,
      "idpw": "PW0219",
      "geo_shape": {
        "type": "Point",
        "coordinates": [2.358004775693508, 48.86601657813311]
      },
      "etat2": "Op\u00e9rationnel"
    },
    "geometry": {
      "type": "Point",
      "coordinates": [2.35800477569, 48.8660165781]
    },
    "record_timestamp": "2020-02-12T08:00:33.449+01:00"
  },
  {
    "datasetid": "sites-disposant-du-service-paris-wi-fi",
    "recordid": "76babb444bfa559a835dea23a868938fb9ae8e1f",
    "fields": {
      "cp": "75003",
      "nom_site": "BIBLIOTHEQUE MARGUERITE AUDOUX",
      "arc_adresse": "8-12 RUE PORTEFOIN",
      "geo_point_2d": [48.8637689236, 2.3598462566],
      "nombre_de_borne_wifi": 2,
      "idpw": "PW0044",
      "geo_shape": {
        "type": "Point",
        "coordinates": [2.359846256600825, 48.86376892355013]
      },
      "etat2": "Op\u00e9rationnel"
    },
    "geometry": {
      "type": "Point",
      "coordinates": [2.3598462566, 48.8637689236]
    },
    "record_timestamp": "2020-02-12T08:00:33.449+01:00"
  },
  {
    "datasetid": "sites-disposant-du-service-paris-wi-fi",
    "recordid": "aa4a2452781df264bd2d9aa8082724f9a7c36050",
    "fields": {
      "cp": "75003",
      "nom_site": "BOURSE DU TRAVAIL ANNEXE CHARLOT",
      "arc_adresse": "85 RUE CHARLOT",
      "geo_point_2d": [48.8651482532, 2.36510801775],
      "nombre_de_borne_wifi": 1,
      "idpw": "PW0220",
      "geo_shape": {
        "type": "Point",
        "coordinates": [2.365108017746905, 48.86514825320897]
      },
      "etat2": "Op\u00e9rationnel"
    },
    "geometry": {
      "type": "Point",
      "coordinates": [2.36510801775, 48.8651482532]
    },
    "record_timestamp": "2020-02-12T08:00:33.449+01:00"
  },
  {
    "datasetid": "sites-disposant-du-service-paris-wi-fi",
    "recordid": "d4deea6c901eb4c57bcc877d43896ff320e87e04",
    "fields": {
      "cp": "75003",
      "nom_site": "MAISON DES INITIATIVES ETUDIANTES",
      "arc_adresse": "50 RUE DES TOURNELLES",
      "geo_point_2d": [48.8562219571, 2.36739182013],
      "nombre_de_borne_wifi": 8,
      "idpw": "PW0070",
      "geo_shape": {
        "type": "Point",
        "coordinates": [2.36739182012952, 48.856221957138]
      },
      "etat2": "Op\u00e9rationnel"
    },
    "geometry": {
      "type": "Point",
      "coordinates": [2.36739182013, 48.8562219571]
    },
    "record_timestamp": "2020-02-12T08:00:33.449+01:00"
  },
  {
    "datasetid": "sites-disposant-du-service-paris-wi-fi",
    "recordid": "d573a90c47a0a196aaca61bddb039d1be55f9775",
    "fields": {
      "cp": "75004",
      "nom_site": "SQUARE JEAN XXIII - 2",
      "arc_adresse": "RUE DU CLOITRE NOTRE DAME",
      "geo_point_2d": [48.8525014751, 2.35079596201],
      "nombre_de_borne_wifi": 1,
      "idpw": "PW0067",
      "geo_shape": {
        "type": "Point",
        "coordinates": [2.35079596200768, 48.852501475068166]
      },
      "etat2": "Op\u00e9rationnel"
    },
    "geometry": {
      "type": "Point",
      "coordinates": [2.35079596201, 48.8525014751]
    },
    "record_timestamp": "2020-02-12T08:00:33.449+01:00"
  },
  {
    "datasetid": "sites-disposant-du-service-paris-wi-fi",
    "recordid": "c35f956ad6c0e2acaad69145cb5f78422041afce",
    "fields": {
      "cp": "75004",
      "nom_site": "HOTEL DE VILLE 3EME",
      "arc_adresse": "4 PLACE DE L HOTEL DE VILLE",
      "geo_point_2d": [48.8563280136, 2.35290178599],
      "nombre_de_borne_wifi": 3,
      "idpw": "PW0122-4",
      "geo_shape": {
        "type": "Point",
        "coordinates": [2.352901785985004, 48.85632801355686]
      },
      "etat2": "Op\u00e9rationnel"
    },
    "geometry": {
      "type": "Point",
      "coordinates": [2.35290178599, 48.8563280136]
    },
    "record_timestamp": "2020-02-12T08:00:33.449+01:00"
  },
  {
    "datasetid": "sites-disposant-du-service-paris-wi-fi",
    "recordid": "890ed7b69e9a5479aca420e1e66ec8d71277eb54",
    "fields": {
      "cp": "75004",
      "nom_site": "HOTEL DE VILLE 2EME",
      "arc_adresse": "4 PLACE DE L HOTEL DE VILLE",
      "geo_point_2d": [48.8560260905, 2.35268578589],
      "nombre_de_borne_wifi": 6,
      "idpw": "PW0122-3",
      "geo_shape": {
        "type": "Point",
        "coordinates": [2.352685785891044, 48.85602609046494]
      },
      "etat2": "Op\u00e9rationnel"
    },
    "geometry": {
      "type": "Point",
      "coordinates": [2.35268578589, 48.8560260905]
    },
    "record_timestamp": "2020-02-12T08:00:33.449+01:00"
  },
  {
    "datasetid": "sites-disposant-du-service-paris-wi-fi",
    "recordid": "64e661adfa52664d2ca33ee934266d90446cdf20",
    "fields": {
      "cp": "75004",
      "nom_site": "SQUARE LOUIS XIII",
      "arc_adresse": "30 PLACE DES VOSGES",
      "geo_point_2d": [48.8556307839, 2.36565840313],
      "nombre_de_borne_wifi": 1,
      "idpw": "PW0163",
      "geo_shape": {
        "type": "Point",
        "coordinates": [2.365658403131317, 48.855630783910044]
      },
      "etat2": "Op\u00e9rationnel"
    },
    "geometry": {
      "type": "Point",
      "coordinates": [2.36565840313, 48.8556307839]
    },
    "record_timestamp": "2020-02-12T08:00:33.449+01:00"
  },
  {
    "datasetid": "sites-disposant-du-service-paris-wi-fi",
    "recordid": "43621f9ec7c7c1a764269bad4219e46d78b35c40",
    "fields": {
      "cp": "75004",
      "nom_site": "MAISON DES ACTEURS DU PARIS DURABLE",
      "arc_adresse": "21 RUE BLANCS MANTEAUX",
      "geo_point_2d": [48.8590496567, 2.35687277554],
      "nombre_de_borne_wifi": 3,
      "idpw": "PW0192",
      "geo_shape": {
        "type": "Point",
        "coordinates": [2.356872775538012, 48.85904965674071]
      },
      "etat2": "Op\u00e9rationnel"
    },
    "geometry": {
      "type": "Point",
      "coordinates": [2.35687277554, 48.8590496567]
    },
    "record_timestamp": "2020-02-12T08:00:33.449+01:00"
  },
  {
    "datasetid": "sites-disposant-du-service-paris-wi-fi",
    "recordid": "4ca2404a74b680a2c900e28f9ba4e70c19d8cc24",
    "fields": {
      "cp": "75004",
      "nom_site": "HOTEL DE VILLE SOUS SOL",
      "arc_adresse": "4 PLACE DE L'HOTEL DE VILLE",
      "geo_point_2d": [48.8567634421, 2.35264831302],
      "nombre_de_borne_wifi": 3,
      "idpw": "PW0122",
      "geo_shape": {
        "type": "Point",
        "coordinates": [2.352648313015422, 48.856763442143226]
      },
      "etat2": "Op\u00e9rationnel"
    },
    "geometry": {
      "type": "Point",
      "coordinates": [2.35264831302, 48.8567634421]
    },
    "record_timestamp": "2020-02-12T08:00:33.449+01:00"
  },
  {
    "datasetid": "sites-disposant-du-service-paris-wi-fi",
    "recordid": "eb4945c8353f06b60c8f0b7088e0ee3def609341",
    "fields": {
      "cp": "75004",
      "nom_site": "JARDIN FREDERICO GARCIA LORCA - SQUARE HDV",
      "arc_adresse": "QUAI DE L'HOTEL DE VILLE",
      "geo_point_2d": [48.8547105055, 2.35324093401],
      "nombre_de_borne_wifi": 1,
      "idpw": "PW0191",
      "geo_shape": {
        "type": "Point",
        "coordinates": [2.353240934008803, 48.85471050547104]
      },
      "etat2": "Op\u00e9rationnel"
    },
    "geometry": {
      "type": "Point",
      "coordinates": [2.35324093401, 48.8547105055]
    },
    "record_timestamp": "2020-02-12T08:00:33.449+01:00"
  },
  {
    "datasetid": "sites-disposant-du-service-paris-wi-fi",
    "recordid": "02b0cd278a808a7be40687547dd5e8702c162c37",
    "fields": {
      "cp": "75004",
      "nom_site": "LES BLANCS MANTEAUX",
      "arc_adresse": "48 RUE VIEILLE DU TEMPLE",
      "geo_point_2d": [48.8582613252, 2.35839235718],
      "nombre_de_borne_wifi": 2,
      "idpw": "PW0121",
      "geo_shape": {
        "type": "Point",
        "coordinates": [2.358392357177399, 48.858261325151034]
      },
      "etat2": "Op\u00e9rationnel"
    },
    "geometry": {
      "type": "Point",
      "coordinates": [2.35839235718, 48.8582613252]
    },
    "record_timestamp": "2020-02-12T08:00:33.449+01:00"
  },
  {
    "datasetid": "sites-disposant-du-service-paris-wi-fi",
    "recordid": "9e90269c95199044e7631e92e2bfb88d21c1507f",
    "fields": {
      "cp": "75004",
      "nom_site": "BIBLIOTHEQUE FORNEY",
      "arc_adresse": "1 RUE DU FIGUIER",
      "geo_point_2d": [48.853423534, 2.35917923727],
      "nombre_de_borne_wifi": 2,
      "idpw": "PW0050",
      "geo_shape": {
        "type": "Point",
        "coordinates": [2.359179237268959, 48.853423533989464]
      },
      "etat2": "Op\u00e9rationnel"
    },
    "geometry": {
      "type": "Point",
      "coordinates": [2.35917923727, 48.853423534]
    },
    "record_timestamp": "2020-02-12T08:00:33.449+01:00"
  },
  {
    "datasetid": "sites-disposant-du-service-paris-wi-fi",
    "recordid": "616f8c12137c405eecd4e43e3ffad853aebbbd07",
    "fields": {
      "cp": "75004",
      "nom_site": "HOTEL DE VILLE 1ER",
      "arc_adresse": "PLACE DE L HOTEL DE VILLE",
      "geo_point_2d": [48.856082874, 2.35226185907],
      "nombre_de_borne_wifi": 3,
      "idpw": "PW0122-2",
      "geo_shape": {
        "type": "Point",
        "coordinates": [2.352261859070027, 48.85608287395022]
      },
      "etat2": "Op\u00e9rationnel"
    },
    "geometry": {
      "type": "Point",
      "coordinates": [2.35226185907, 48.856082874]
    },
    "record_timestamp": "2020-02-12T08:00:33.449+01:00"
  },
  {
    "datasetid": "sites-disposant-du-service-paris-wi-fi",
    "recordid": "b852ad43e0439ee4976373afc522d576b47aee86",
    "fields": {
      "cp": "75004",
      "nom_site": "HOTEL DE VILLE 4EME",
      "arc_adresse": "4 PLACE DE L'HOTEL DE VILLE",
      "geo_point_2d": [48.8568665354, 2.35317182328],
      "nombre_de_borne_wifi": 6,
      "idpw": "PW0122-5",
      "geo_shape": {
        "type": "Point",
        "coordinates": [2.353171823279209, 48.85686653543352]
      },
      "etat2": "Op\u00e9rationnel"
    },
    "geometry": {
      "type": "Point",
      "coordinates": [2.35317182328, 48.8568665354]
    },
    "record_timestamp": "2020-02-12T08:00:33.449+01:00"
  },
  {
    "datasetid": "sites-disposant-du-service-paris-wi-fi",
    "recordid": "63215849044a3968d1ed6acb25978863f1dea93e",
    "fields": {
      "cp": "75004",
      "nom_site": "HOTEL DE VILLE PARVIS RIVOLI",
      "arc_adresse": "4 PLACE DE L HOTEL DE VILLE",
      "geo_point_2d": [48.8570518501, 2.35235172421],
      "nombre_de_borne_wifi": 1,
      "idpw": "PW0123-1",
      "geo_shape": {
        "type": "Point",
        "coordinates": [2.352351724212447, 48.857051850068956]
      },
      "etat2": "Op\u00e9rationnel"
    },
    "geometry": {
      "type": "Point",
      "coordinates": [2.35235172421, 48.8570518501]
    },
    "record_timestamp": "2020-02-12T08:00:33.449+01:00"
  },
  {
    "datasetid": "sites-disposant-du-service-paris-wi-fi",
    "recordid": "b5048436a03220839d783f5a9f1f61ec0f7c7a83",
    "fields": {
      "cp": "75004",
      "nom_site": "MAIRIE DU 4 EME",
      "arc_adresse": "2 PLACE BAUDOYER",
      "geo_point_2d": [48.8562716079, 2.35575690111],
      "nombre_de_borne_wifi": 2,
      "idpw": "PW0132",
      "geo_shape": {
        "type": "Point",
        "coordinates": [2.355756901105178, 48.856271607867846]
      },
      "etat2": "Op\u00e9rationnel"
    },
    "geometry": {
      "type": "Point",
      "coordinates": [2.35575690111, 48.8562716079]
    },
    "record_timestamp": "2020-02-12T08:00:33.449+01:00"
  },
  {
    "datasetid": "sites-disposant-du-service-paris-wi-fi",
    "recordid": "dfc32174744f4716bb47dd44ea1570ee54c5ef44",
    "fields": {
      "cp": "75004",
      "nom_site": "BIBLIOTHEQUE HISTORIQUE DE LA VILLE DE PARIS (BHVP)",
      "arc_adresse": "24 RUE PAVEE",
      "geo_point_2d": [48.8570654279, 2.36169590439],
      "nombre_de_borne_wifi": 1,
      "idpw": "PW0043",
      "geo_shape": {
        "type": "Point",
        "coordinates": [2.361695904390476, 48.857065427924205]
      },
      "etat2": "Op\u00e9rationnel"
    },
    "geometry": {
      "type": "Point",
      "coordinates": [2.36169590439, 48.8570654279]
    },
    "record_timestamp": "2020-02-12T08:00:33.449+01:00"
  },
  {
    "datasetid": "sites-disposant-du-service-paris-wi-fi",
    "recordid": "30db5762e5d8d9af48bb4c259b1697e339adcb37",
    "fields": {
      "cp": "75004",
      "nom_site": "BERGES RIVE DROITE - PONT D ARCOLE",
      "arc_adresse": "BERGE DE SEINE RIVE DROITE - QUAI DE GESVRES",
      "geo_point_2d": [48.8558319848, 2.35083466129],
      "nombre_de_borne_wifi": 1,
      "idpw": "PW0156",
      "geo_shape": {
        "type": "Point",
        "coordinates": [2.350834661285838, 48.8558319847793]
      },
      "etat2": "Op\u00e9rationnel"
    },
    "geometry": {
      "type": "Point",
      "coordinates": [2.35083466129, 48.8558319848]
    },
    "record_timestamp": "2020-02-12T08:00:33.449+01:00"
  },
  {
    "datasetid": "sites-disposant-du-service-paris-wi-fi",
    "recordid": "5eac35f4cc065289ba719f2eb9c0dfdce935e26b",
    "fields": {
      "cp": "75004",
      "nom_site": "BERGES RIVE DROITE - LES NAUTES",
      "arc_adresse": "BERGE DE SEINE RIVE DROITE - 5 QUAI DES CELESTINS",
      "geo_point_2d": [48.8523533398, 2.3603109745],
      "nombre_de_borne_wifi": 1,
      "idpw": "PW0150",
      "geo_shape": {
        "type": "Point",
        "coordinates": [2.360310974496216, 48.85235333983582]
      },
      "etat2": "Op\u00e9rationnel"
    },
    "geometry": {
      "type": "Point",
      "coordinates": [2.3603109745, 48.8523533398]
    },
    "record_timestamp": "2020-02-12T08:00:33.449+01:00"
  },
  {
    "datasetid": "sites-disposant-du-service-paris-wi-fi",
    "recordid": "ca9e8c8a86f9746dc41b6f791c0e960758b06b28",
    "fields": {
      "cp": "75004",
      "nom_site": "HOTEL DE VILLE RDC",
      "arc_adresse": "4 PLACE DE L'HOTEL DE VILLE",
      "geo_point_2d": [48.856389683, 2.35238826701],
      "nombre_de_borne_wifi": 2,
      "idpw": "PW0122-1",
      "geo_shape": {
        "type": "Point",
        "coordinates": [2.35238826700578, 48.85638968298792]
      },
      "etat2": "Op\u00e9rationnel"
    },
    "geometry": {
      "type": "Point",
      "coordinates": [2.35238826701, 48.856389683]
    },
    "record_timestamp": "2020-02-12T08:00:33.449+01:00"
  },
  {
    "datasetid": "sites-disposant-du-service-paris-wi-fi",
    "recordid": "b8cb00d7641e20389fdfc005eed3d60d54178fe3",
    "fields": {
      "cp": "75004",
      "nom_site": "BERGES RIVE DROITE - PONT NOTRE DAME",
      "arc_adresse": "BERGE DE SEINE RIVE DROITE -  QUAI DE GESVRES 2",
      "geo_point_2d": [48.8566875709, 2.34892300033],
      "nombre_de_borne_wifi": 1,
      "idpw": "PW0181",
      "geo_shape": {
        "type": "Point",
        "coordinates": [2.3489230003257022, 48.856687570900185]
      },
      "etat2": "Op\u00e9rationnel"
    },
    "geometry": {
      "type": "Point",
      "coordinates": [2.34892300033, 48.8566875709]
    },
    "record_timestamp": "2020-02-12T08:00:33.449+01:00"
  },
  {
    "datasetid": "sites-disposant-du-service-paris-wi-fi",
    "recordid": "c2e82cc459abed788bda719540e394c5448d9388",
    "fields": {
      "cp": "75004",
      "nom_site": "SQUARE JEAN XXIII - 1",
      "arc_adresse": "RUE DU CLOITRE NOTRE DAME",
      "geo_point_2d": [48.8524420013, 2.35067060781],
      "nombre_de_borne_wifi": 1,
      "geo_shape": {
        "type": "Point",
        "coordinates": [2.350670607814152, 48.85244200134777]
      },
      "etat2": "Ferm\u00e9 pour travaux"
    },
    "geometry": {
      "type": "Point",
      "coordinates": [2.35067060781, 48.8524420013]
    },
    "record_timestamp": "2020-02-12T08:00:33.449+01:00"
  },
  {
    "datasetid": "sites-disposant-du-service-paris-wi-fi",
    "recordid": "1b940e19363ba63a27acc9e6a31797a4e354245b",
    "fields": {
      "cp": "75004",
      "nom_site": "SQUARE DE LA TOUR SAINT JACQUES",
      "arc_adresse": "88 RUE DE RIVOLI",
      "geo_point_2d": [48.8580407243, 2.34922010145],
      "nombre_de_borne_wifi": 1,
      "idpw": "PW0153",
      "geo_shape": {
        "type": "Point",
        "coordinates": [2.349220101454865, 48.85804072427662]
      },
      "etat2": "Op\u00e9rationnel"
    },
    "geometry": {
      "type": "Point",
      "coordinates": [2.34922010145, 48.8580407243]
    },
    "record_timestamp": "2020-02-12T08:00:33.449+01:00"
  },
  {
    "datasetid": "sites-disposant-du-service-paris-wi-fi",
    "recordid": "e2e5fe7726bf7bd38d7fdd5de7f962c36609fe54",
    "fields": {
      "cp": "75004",
      "nom_site": "HOTEL DE VILLE  PARVIS  9",
      "arc_adresse": "9 PLACE DE L HOTEL DE VILLE",
      "geo_point_2d": [48.8572732825, 2.35127761215],
      "nombre_de_borne_wifi": 1,
      "idpw": "PW0119",
      "geo_shape": {
        "type": "Point",
        "coordinates": [2.351277612149236, 48.85727328251876]
      },
      "etat2": "Op\u00e9rationnel"
    },
    "geometry": {
      "type": "Point",
      "coordinates": [2.35127761215, 48.8572732825]
    },
    "record_timestamp": "2020-02-12T08:00:33.449+01:00"
  },
  {
    "datasetid": "sites-disposant-du-service-paris-wi-fi",
    "recordid": "b1e521f16985acdcc8c1926ad512c615ad9287f9",
    "fields": {
      "cp": "75004",
      "nom_site": "BIBLIOTHEQUE ARTHUR RIMBAUD",
      "arc_adresse": "2 PLACE BAUDOYER",
      "geo_point_2d": [48.8561383736, 2.35593752424],
      "nombre_de_borne_wifi": 2,
      "idpw": "PW0132-2",
      "geo_shape": {
        "type": "Point",
        "coordinates": [2.3559375242406873, 48.85613837361524]
      },
      "etat2": "Op\u00e9rationnel"
    },
    "geometry": {
      "type": "Point",
      "coordinates": [2.35593752424, 48.8561383736]
    },
    "record_timestamp": "2020-02-12T08:00:33.449+01:00"
  },
  {
    "datasetid": "sites-disposant-du-service-paris-wi-fi",
    "recordid": "9f27b1f9804eda422e3324cd432f99a0b4567829",
    "fields": {
      "cp": "75004",
      "nom_site": "HOTEL DE VILLE PARVIS SEINE",
      "arc_adresse": "4 PLACE DE L'HOTEL DE VILLE",
      "geo_point_2d": [48.8563193139, 2.35175507673],
      "nombre_de_borne_wifi": 1,
      "idpw": "PW0123",
      "geo_shape": {
        "type": "Point",
        "coordinates": [2.35175507673093, 48.8563193139378]
      },
      "etat2": "Op\u00e9rationnel"
    },
    "geometry": {
      "type": "Point",
      "coordinates": [2.35175507673, 48.8563193139]
    },
    "record_timestamp": "2020-02-12T08:00:33.449+01:00"
  },
  {
    "datasetid": "sites-disposant-du-service-paris-wi-fi",
    "recordid": "8a772a36922c21954a71a2f359ae842c90e2e6af",
    "fields": {
      "cp": "75005",
      "nom_site": "BIBLIOTHEQUE BUFFON",
      "arc_adresse": "15 B RUE BUFFON",
      "geo_point_2d": [48.842546608, 2.3618682436],
      "nombre_de_borne_wifi": 3,
      "idpw": "PW0111",
      "geo_shape": {
        "type": "Point",
        "coordinates": [2.361868243596555, 48.842546608019944]
      },
      "etat2": "Op\u00e9rationnel"
    },
    "geometry": {
      "type": "Point",
      "coordinates": [2.3618682436, 48.842546608]
    },
    "record_timestamp": "2020-02-12T08:00:33.449+01:00"
  },
  {
    "datasetid": "sites-disposant-du-service-paris-wi-fi",
    "recordid": "26e6bd36525ed35b1f329d63f1549443bd50869b",
    "fields": {
      "cp": "75005",
      "nom_site": "CENTRE SPORTIF POLIVEAU",
      "arc_adresse": "39 B RUE POLIVEAU",
      "geo_point_2d": [48.8398121461, 2.35748075184],
      "nombre_de_borne_wifi": 1,
      "idpw": "PW0090",
      "geo_shape": {
        "type": "Point",
        "coordinates": [2.357480751841143, 48.839812146077996]
      },
      "etat2": "Op\u00e9rationnel"
    },
    "geometry": {
      "type": "Point",
      "coordinates": [2.35748075184, 48.8398121461]
    },
    "record_timestamp": "2020-02-12T08:00:33.449+01:00"
  },
  {
    "datasetid": "sites-disposant-du-service-paris-wi-fi",
    "recordid": "1a6e6e91878693c7eab12bba80d44f30d6b33dff",
    "fields": {
      "cp": "75005",
      "nom_site": "SQUARE PAUL LANGEVIN",
      "arc_adresse": "12 RUE DES ECOLES",
      "geo_point_2d": [48.8480849077, 2.34964310763],
      "nombre_de_borne_wifi": 2,
      "idpw": "PW0154",
      "geo_shape": {
        "type": "Point",
        "coordinates": [2.34964310762926, 48.848084907658944]
      },
      "etat2": "Op\u00e9rationnel"
    },
    "geometry": {
      "type": "Point",
      "coordinates": [2.34964310763, 48.8480849077]
    },
    "record_timestamp": "2020-02-12T08:00:33.449+01:00"
  },
  {
    "datasetid": "sites-disposant-du-service-paris-wi-fi",
    "recordid": "1a3def1ddcdb7fe065c368c1e3a28b3f421bd839",
    "fields": {
      "cp": "75005",
      "nom_site": "BIBLIOTHEQUE DES LITTERATURES POLICIERES",
      "arc_adresse": "48-50 RUE DU CARDINAL LEMOINE",
      "geo_point_2d": [48.84643023, 2.35118103072],
      "nombre_de_borne_wifi": 2,
      "idpw": "PW0138",
      "geo_shape": {
        "type": "Point",
        "coordinates": [2.351181030723315, 48.84643022998531]
      },
      "etat2": "Op\u00e9rationnel"
    },
    "geometry": {
      "type": "Point",
      "coordinates": [2.35118103072, 48.84643023]
    },
    "record_timestamp": "2020-02-12T08:00:33.449+01:00"
  },
  {
    "datasetid": "sites-disposant-du-service-paris-wi-fi",
    "recordid": "4573afcb8246b227fe83857f2d96e0079c6445ec",
    "fields": {
      "cp": "75005",
      "nom_site": "BIBLIOTHEQUE HEURE JOYEUSE",
      "arc_adresse": "6-12 RUE DES PRETRES ST-SEVERIN",
      "geo_point_2d": [48.8519010105, 2.34494821891],
      "nombre_de_borne_wifi": 2,
      "idpw": "PW0136",
      "geo_shape": {
        "type": "Point",
        "coordinates": [2.344948218913558, 48.85190101045929]
      },
      "etat2": "Op\u00e9rationnel"
    },
    "geometry": {
      "type": "Point",
      "coordinates": [2.34494821891, 48.8519010105]
    },
    "record_timestamp": "2020-02-12T08:00:33.449+01:00"
  },
  {
    "datasetid": "sites-disposant-du-service-paris-wi-fi",
    "recordid": "82a18ed03e69ac8f0b42f826ec573f7caa05a42c",
    "fields": {
      "cp": "75005",
      "nom_site": "MAISON DE LA VIE ASSOCIATIVE ET CITOYENNE QUARTIER LATIN 5",
      "arc_adresse": "4 RUE DES ARENES",
      "geo_point_2d": [48.8451121922, 2.3542064419],
      "nombre_de_borne_wifi": 2,
      "idpw": "PW0026",
      "geo_shape": {
        "type": "Point",
        "coordinates": [2.3542064419028152, 48.845112192168884]
      },
      "etat2": "Op\u00e9rationnel"
    },
    "geometry": {
      "type": "Point",
      "coordinates": [2.3542064419, 48.8451121922]
    },
    "record_timestamp": "2020-02-12T08:00:33.449+01:00"
  },
  {
    "datasetid": "sites-disposant-du-service-paris-wi-fi",
    "recordid": "7dab25dd0732bab0549a72693c69ca336eee91b0",
    "fields": {
      "cp": "75005",
      "nom_site": "BIBLIOTHEQUE MOHAMMED ARKOUN",
      "arc_adresse": "74 RUE MOUFFETARD",
      "geo_point_2d": [48.8424935285, 2.34967376066],
      "nombre_de_borne_wifi": 2,
      "idpw": "PW0126",
      "geo_shape": {
        "type": "Point",
        "coordinates": [2.349673760661307, 48.84249352852194]
      },
      "etat2": "Op\u00e9rationnel"
    },
    "geometry": {
      "type": "Point",
      "coordinates": [2.34967376066, 48.8424935285]
    },
    "record_timestamp": "2020-02-12T08:00:33.449+01:00"
  },
  {
    "datasetid": "sites-disposant-du-service-paris-wi-fi",
    "recordid": "525eee0b0a020aee8e610e99eabfe1bb68000ada",
    "fields": {
      "cp": "75005",
      "nom_site": "MAIRIE DU 5 EME",
      "arc_adresse": "21 PLACE DU PANTHEON",
      "geo_point_2d": [48.846191709, 2.3445808787],
      "nombre_de_borne_wifi": 2,
      "idpw": "PW0021",
      "geo_shape": {
        "type": "Point",
        "coordinates": [2.344580878695055, 48.846191708958614]
      },
      "etat2": "Op\u00e9rationnel"
    },
    "geometry": {
      "type": "Point",
      "coordinates": [2.3445808787, 48.846191709]
    },
    "record_timestamp": "2020-02-12T08:00:33.449+01:00"
  },
  {
    "datasetid": "sites-disposant-du-service-paris-wi-fi",
    "recordid": "0ccb26a9785c5fab14465665647437afa3affd3c",
    "fields": {
      "cp": "75005",
      "nom_site": "BIBLIOTHEQUE RAINER MARIA RILKE",
      "arc_adresse": "88 T BOULEVARD DE PORT-ROYAL",
      "geo_point_2d": [48.8393069888, 2.33878167349],
      "nombre_de_borne_wifi": 2,
      "idpw": "PW0115",
      "geo_shape": {
        "type": "Point",
        "coordinates": [2.338781673488586, 48.839306988804566]
      },
      "etat2": "Op\u00e9rationnel"
    },
    "geometry": {
      "type": "Point",
      "coordinates": [2.33878167349, 48.8393069888]
    },
    "record_timestamp": "2020-02-12T08:00:33.449+01:00"
  },
  {
    "datasetid": "sites-disposant-du-service-paris-wi-fi",
    "recordid": "8d300cfabe5549994a475c7f59545b5f8e0ea495",
    "fields": {
      "cp": "75005",
      "nom_site": "SQUARE THEODORE MONOD",
      "arc_adresse": "8 RUE SCIPION",
      "geo_point_2d": [48.8383992161, 2.35377753667],
      "nombre_de_borne_wifi": 1,
      "idpw": "PW0155",
      "geo_shape": {
        "type": "Point",
        "coordinates": [2.353777536666723, 48.83839921606968]
      },
      "etat2": "Op\u00e9rationnel"
    },
    "geometry": {
      "type": "Point",
      "coordinates": [2.35377753667, 48.8383992161]
    },
    "record_timestamp": "2020-02-12T08:00:33.449+01:00"
  },
  {
    "datasetid": "sites-disposant-du-service-paris-wi-fi",
    "recordid": "66099390553749c1134eeecda7b283096e5de86d",
    "fields": {
      "cp": "75006",
      "nom_site": "JARDIN DES GRANDS EXPLORATEURS",
      "arc_adresse": "5 RUE MICHELET",
      "geo_point_2d": [48.8413885661, 2.33670570395],
      "nombre_de_borne_wifi": 1,
      "idpw": "PW0208",
      "geo_shape": {
        "type": "Point",
        "coordinates": [2.336705703948916, 48.841388566111874]
      },
      "etat2": "Op\u00e9rationnel"
    },
    "geometry": {
      "type": "Point",
      "coordinates": [2.33670570395, 48.8413885661]
    },
    "record_timestamp": "2020-02-12T08:00:33.449+01:00"
  },
  {
    "datasetid": "sites-disposant-du-service-paris-wi-fi",
    "recordid": "d340168c447e7ca0da4662260293767d2eb6ad9d",
    "fields": {
      "cp": "75006",
      "nom_site": "MAIRIE DU 6 EME",
      "arc_adresse": "78 RUE BONAPARTE",
      "geo_point_2d": [48.8505365269, 2.33261137019],
      "nombre_de_borne_wifi": 1,
      "idpw": "PW0128",
      "geo_shape": {
        "type": "Point",
        "coordinates": [2.332611370193369, 48.85053652689776]
      },
      "etat2": "Op\u00e9rationnel"
    },
    "geometry": {
      "type": "Point",
      "coordinates": [2.33261137019, 48.8505365269]
    },
    "record_timestamp": "2020-02-12T08:00:33.449+01:00"
  },
  {
    "datasetid": "sites-disposant-du-service-paris-wi-fi",
    "recordid": "af0e0eb9fd9045096b3ce22c3018bdb764624123",
    "fields": {
      "cp": "75006",
      "nom_site": "MAISON DES INITIATIVES ETUDIANTES LABO6",
      "arc_adresse": "76B RUE DE RENNES",
      "geo_point_2d": [48.8512426095, 2.33044362302],
      "nombre_de_borne_wifi": 4,
      "idpw": "PW0146",
      "geo_shape": {
        "type": "Point",
        "coordinates": [2.330443623016365, 48.851242609525265]
      },
      "etat2": "Op\u00e9rationnel"
    },
    "geometry": {
      "type": "Point",
      "coordinates": [2.33044362302, 48.8512426095]
    },
    "record_timestamp": "2020-02-12T08:00:33.449+01:00"
  },
  {
    "datasetid": "sites-disposant-du-service-paris-wi-fi",
    "recordid": "7d6fbee334024ed7b2e4207babe1f330d0f68a69",
    "fields": {
      "cp": "75006",
      "nom_site": "BIBLIOTHEQUE ANDRE MALRAUX",
      "arc_adresse": "78 BOULEVARD RASPAIL",
      "geo_point_2d": [48.8481097373, 2.32759433608],
      "nombre_de_borne_wifi": 2,
      "idpw": "PW0118",
      "geo_shape": {
        "type": "Point",
        "coordinates": [2.327594336081364, 48.848109737334205]
      },
      "etat2": "Op\u00e9rationnel"
    },
    "geometry": {
      "type": "Point",
      "coordinates": [2.32759433608, 48.8481097373]
    },
    "record_timestamp": "2020-02-12T08:00:33.449+01:00"
  },
  {
    "datasetid": "sites-disposant-du-service-paris-wi-fi",
    "recordid": "fc874062cf3c2edb050c7c99ee461132193d966b",
    "fields": {
      "cp": "75007",
      "nom_site": "PARC CHAMPS DE MARS - 1",
      "arc_adresse": "AVENUE CHARLES RISLER",
      "geo_point_2d": [48.8569794103, 2.29333906348],
      "nombre_de_borne_wifi": 1,
      "idpw": "PW0165",
      "geo_shape": {
        "type": "Point",
        "coordinates": [2.293339063475273, 48.85697941031564]
      },
      "etat2": "Op\u00e9rationnel"
    },
    "geometry": {
      "type": "Point",
      "coordinates": [2.29333906348, 48.8569794103]
    },
    "record_timestamp": "2020-02-12T08:00:33.449+01:00"
  },
  {
    "datasetid": "sites-disposant-du-service-paris-wi-fi",
    "recordid": "bbf5d0a589ec3f120262cdd7b9c30c4654348edf",
    "fields": {
      "cp": "75007",
      "nom_site": "BIBLIOTHEQUE SAINT SIMON",
      "arc_adresse": "116 RUE DE GRENELLE",
      "geo_point_2d": [48.8568664767, 2.32004369744],
      "nombre_de_borne_wifi": 1,
      "idpw": "PW0022-1",
      "geo_shape": {
        "type": "Point",
        "coordinates": [2.320043697435677, 48.85686647665855]
      },
      "etat2": "Op\u00e9rationnel"
    },
    "geometry": {
      "type": "Point",
      "coordinates": [2.32004369744, 48.8568664767]
    },
    "record_timestamp": "2020-02-12T08:00:33.449+01:00"
  },
  {
    "datasetid": "sites-disposant-du-service-paris-wi-fi",
    "recordid": "47cb63585c321ef6a13bd3e706785647d39abbba",
    "fields": {
      "cp": "75007",
      "nom_site": "PARC CHAMPS DE MARS - 2",
      "arc_adresse": "AVENUE CHARLES RISLER",
      "geo_point_2d": [48.8546101225, 2.30019063073],
      "nombre_de_borne_wifi": 1,
      "idpw": "PW0165-1",
      "geo_shape": {
        "type": "Point",
        "coordinates": [2.300190630733142, 48.85461012252293]
      },
      "etat2": "Op\u00e9rationnel"
    },
    "geometry": {
      "type": "Point",
      "coordinates": [2.30019063073, 48.8546101225]
    },
    "record_timestamp": "2020-02-12T08:00:33.449+01:00"
  },
  {
    "datasetid": "sites-disposant-du-service-paris-wi-fi",
    "recordid": "9e34c42ce90b7ea3cab066123de28e08c7c17229",
    "fields": {
      "cp": "75007",
      "nom_site": "BERGES RIVE GAUCHE - LA HALLE",
      "arc_adresse": "PORT DE SOLFERINO",
      "geo_point_2d": [48.8611484589, 2.32506543396],
      "nombre_de_borne_wifi": 3,
      "idpw": "PW0190",
      "geo_shape": {
        "type": "Point",
        "coordinates": [2.32506543396433, 48.86114845894017]
      },
      "etat2": "Op\u00e9rationnel"
    },
    "geometry": {
      "type": "Point",
      "coordinates": [2.32506543396, 48.8611484589]
    },
    "record_timestamp": "2020-02-12T08:00:33.449+01:00"
  },
  {
    "datasetid": "sites-disposant-du-service-paris-wi-fi",
    "recordid": "435ea36ab654bc469e115cb36fa1e5daa997980e",
    "fields": {
      "cp": "75007",
      "nom_site": "BERGES RIVE GAUCHE - EMMARCHEMENT",
      "arc_adresse": "PORT DE SOLFERINO",
      "geo_point_2d": [48.8614166418, 2.32435657002],
      "nombre_de_borne_wifi": 2,
      "idpw": "PW0207",
      "geo_shape": {
        "type": "Point",
        "coordinates": [2.324356570020385, 48.861416641848194]
      },
      "etat2": "Op\u00e9rationnel"
    },
    "geometry": {
      "type": "Point",
      "coordinates": [2.32435657002, 48.8614166418]
    },
    "record_timestamp": "2020-02-12T08:00:33.449+01:00"
  },
  {
    "datasetid": "sites-disposant-du-service-paris-wi-fi",
    "recordid": "3ce00faa6ff1470c1f1adfcef2386cf9f206debd",
    "fields": {
      "cp": "75007",
      "nom_site": "BIBLIOTHEQUE AMELIE",
      "arc_adresse": "164 RUE DE GRENELLE",
      "geo_point_2d": [48.8580688977, 2.30898988281],
      "nombre_de_borne_wifi": 1,
      "idpw": "PW0059",
      "geo_shape": {
        "type": "Point",
        "coordinates": [2.308989882814166, 48.85806889772535]
      },
      "etat2": "Op\u00e9rationnel"
    },
    "geometry": {
      "type": "Point",
      "coordinates": [2.30898988281, 48.8580688977]
    },
    "record_timestamp": "2020-02-12T08:00:33.449+01:00"
  },
  {
    "datasetid": "sites-disposant-du-service-paris-wi-fi",
    "recordid": "084aa88f28f9717bb43a7a73cf9f82f53845b1f7",
    "fields": {
      "cp": "75007",
      "nom_site": "MAISON DE LA VIE ASSOCIATIVE ET CITOYENNE 7",
      "arc_adresse": "93 RUE SAINT DOMINIQUE",
      "geo_point_2d": [48.8595702097, 2.30722648326],
      "nombre_de_borne_wifi": 1,
      "idpw": "PW0027",
      "geo_shape": {
        "type": "Point",
        "coordinates": [2.3072264832610783, 48.8595702097367]
      },
      "etat2": "Op\u00e9rationnel"
    },
    "geometry": {
      "type": "Point",
      "coordinates": [2.30722648326, 48.8595702097]
    },
    "record_timestamp": "2020-02-12T08:00:33.449+01:00"
  },
  {
    "datasetid": "sites-disposant-du-service-paris-wi-fi",
    "recordid": "9c6b3c805e86c583b41464beff0851436aff21ca",
    "fields": {
      "cp": "75007",
      "nom_site": "MAIRIE DU 7 EME",
      "arc_adresse": "116 RUE DE GRENELLE",
      "geo_point_2d": [48.8568664767, 2.32004369744],
      "nombre_de_borne_wifi": 1,
      "idpw": "PW0022",
      "geo_shape": {
        "type": "Point",
        "coordinates": [2.320043697435677, 48.85686647665855]
      },
      "etat2": "Op\u00e9rationnel"
    },
    "geometry": {
      "type": "Point",
      "coordinates": [2.32004369744, 48.8568664767]
    },
    "record_timestamp": "2020-02-12T08:00:33.449+01:00"
  },
  {
    "datasetid": "sites-disposant-du-service-paris-wi-fi",
    "recordid": "2c3314e15c75a52d0e6e08623d3855cfb4c6bfee",
    "fields": {
      "cp": "75007",
      "nom_site": "BERGES RIVE GAUCHE - JARDIN FLOTTANT",
      "arc_adresse": "PORT DU GROS CAILLOU",
      "geo_point_2d": [48.8629641751, 2.30452468194],
      "nombre_de_borne_wifi": 3,
      "idpw": "PW0189",
      "geo_shape": {
        "type": "Point",
        "coordinates": [2.30452468193794, 48.86296417505912]
      },
      "etat2": "Op\u00e9rationnel"
    },
    "geometry": {
      "type": "Point",
      "coordinates": [2.30452468194, 48.8629641751]
    },
    "record_timestamp": "2020-02-12T08:00:33.449+01:00"
  },
  {
    "datasetid": "sites-disposant-du-service-paris-wi-fi",
    "recordid": "89cb76574e9be6a37640cc8e9ecdd3d352841529",
    "fields": {
      "cp": "75007",
      "nom_site": "ESPLANADE DES INVALIDES",
      "arc_adresse": "1 RUE PAUL ET JEAN LEROLLE",
      "geo_point_2d": [48.8581897423, 2.31289426397],
      "nombre_de_borne_wifi": 1,
      "idpw": "PW0161",
      "geo_shape": {
        "type": "Point",
        "coordinates": [2.312894263966204, 48.85818974233775]
      },
      "etat2": "Op\u00e9rationnel"
    },
    "geometry": {
      "type": "Point",
      "coordinates": [2.31289426397, 48.8581897423]
    },
    "record_timestamp": "2020-02-12T08:00:33.449+01:00"
  },
  {
    "datasetid": "sites-disposant-du-service-paris-wi-fi",
    "recordid": "5ae055a18ffd25ab34886fccfb7ec7e5d9e849fe",
    "fields": {
      "cp": "75008",
      "nom_site": "PROMENADE DES CHAMPS ELYSEES - KIOSQUE A MUSIQUE",
      "arc_adresse": "AVENUE EDWARD TUCK",
      "geo_point_2d": [48.8652873059, 2.31783976898],
      "nombre_de_borne_wifi": 2,
      "idpw": "PW0196",
      "geo_shape": {
        "type": "Point",
        "coordinates": [2.317839768979231, 48.86528730587914]
      },
      "etat2": "Op\u00e9rationnel"
    },
    "geometry": {
      "type": "Point",
      "coordinates": [2.31783976898, 48.8652873059]
    },
    "record_timestamp": "2020-02-12T08:00:33.449+01:00"
  },
  {
    "datasetid": "sites-disposant-du-service-paris-wi-fi",
    "recordid": "f96e89752c5cae4d89c13071206bc197cd400c23",
    "fields": {
      "cp": "75008",
      "nom_site": "BIBLIOTHEQUE EUROPE",
      "arc_adresse": "3 RUE DE LISBONNE",
      "geo_point_2d": [48.877751384, 2.31748647872],
      "nombre_de_borne_wifi": 2,
      "idpw": "PW0124",
      "geo_shape": {
        "type": "Point",
        "coordinates": [2.317486478723445, 48.8777513840169]
      },
      "etat2": "Op\u00e9rationnel"
    },
    "geometry": {
      "type": "Point",
      "coordinates": [2.31748647872, 48.877751384]
    },
    "record_timestamp": "2020-02-12T08:00:33.449+01:00"
  },
  {
    "datasetid": "sites-disposant-du-service-paris-wi-fi",
    "recordid": "ee661ae19dfc2451339e2032c1db8f49e3845655",
    "fields": {
      "cp": "75008",
      "nom_site": "PARC MONCEAU  - ENTREE PARC",
      "arc_adresse": "1 PLACE DE LA REPUBLIQUE DOMINICAINE",
      "geo_point_2d": [48.87994077, 2.30749907611],
      "nombre_de_borne_wifi": 3,
      "idpw": "PW0151-1",
      "geo_shape": {
        "type": "Point",
        "coordinates": [2.307499076107147, 48.87994077004261]
      },
      "etat2": "Op\u00e9rationnel"
    },
    "geometry": {
      "type": "Point",
      "coordinates": [2.30749907611, 48.87994077]
    },
    "record_timestamp": "2020-02-12T08:00:33.449+01:00"
  },
  {
    "datasetid": "sites-disposant-du-service-paris-wi-fi",
    "recordid": "ea46212be04d268aff6f38e0aa355f8069812da6",
    "fields": {
      "cp": "75008",
      "nom_site": "MAISON DE LA VIE ASSOCIATIVE ET CITOYENNE  8",
      "arc_adresse": "28 RUE LAURE DIEBOLD",
      "geo_point_2d": [48.8760292839, 2.30478482557],
      "nombre_de_borne_wifi": 2,
      "idpw": "PW0047",
      "geo_shape": {
        "type": "Point",
        "coordinates": [2.304784825574433, 48.87602928391506]
      },
      "etat2": "Op\u00e9rationnel"
    },
    "geometry": {
      "type": "Point",
      "coordinates": [2.30478482557, 48.8760292839]
    },
    "record_timestamp": "2020-02-12T08:00:33.449+01:00"
  },
  {
    "datasetid": "sites-disposant-du-service-paris-wi-fi",
    "recordid": "05e0f58db666e7479dbe415fabb3cd7f5a3b641b",
    "fields": {
      "cp": "75008",
      "nom_site": "PARC MONCEAU - ALLEE CONTESSE DE SEGUR",
      "arc_adresse": "1-3 PLACE DE LA REPUBLIQUE DOMINICAINE",
      "geo_point_2d": [48.8802623407, 2.30983989697],
      "nombre_de_borne_wifi": 4,
      "idpw": "PW0151",
      "geo_shape": {
        "type": "Point",
        "coordinates": [2.309839896973783, 48.880262340729686]
      },
      "etat2": "Op\u00e9rationnel"
    },
    "geometry": {
      "type": "Point",
      "coordinates": [2.30983989697, 48.8802623407]
    },
    "record_timestamp": "2020-02-12T08:00:33.449+01:00"
  },
  {
    "datasetid": "sites-disposant-du-service-paris-wi-fi",
    "recordid": "546e0d13412e0343d9b6083d7364b3fb0f768a00",
    "fields": {
      "cp": "75008",
      "nom_site": "GYMNASE BEAUJON",
      "arc_adresse": "7 ALLEE LOUIS DE FUNES",
      "geo_point_2d": [48.8753645715, 2.30462671902],
      "nombre_de_borne_wifi": 1,
      "idpw": "PW0095",
      "geo_shape": {
        "type": "Point",
        "coordinates": [2.304626719021802, 48.87536457154315]
      },
      "etat2": "Op\u00e9rationnel"
    },
    "geometry": {
      "type": "Point",
      "coordinates": [2.30462671902, 48.8753645715]
    },
    "record_timestamp": "2020-02-12T08:00:33.449+01:00"
  },
  {
    "datasetid": "sites-disposant-du-service-paris-wi-fi",
    "recordid": "da9d3b0ed8a7aacf701c83a3d0b0bac2707cc86f",
    "fields": {
      "cp": "75008",
      "nom_site": "MUSEE CERNUSCHI",
      "arc_adresse": "7 AVENUE VELASQUEZ",
      "geo_point_2d": [48.8794445126, 2.31252309998],
      "nombre_de_borne_wifi": 17,
      "idpw": "PW0144",
      "geo_shape": {
        "type": "Point",
        "coordinates": [2.312523099981508, 48.8794445126079]
      },
      "etat2": "Op\u00e9rationnel"
    },
    "geometry": {
      "type": "Point",
      "coordinates": [2.31252309998, 48.8794445126]
    },
    "record_timestamp": "2020-02-12T08:00:33.449+01:00"
  },
  {
    "datasetid": "sites-disposant-du-service-paris-wi-fi",
    "recordid": "fae61f626630f35b729baa3b8ecd9a20c3cce35c",
    "fields": {
      "cp": "75008",
      "nom_site": "MAIRIE DU 8 EME",
      "arc_adresse": "3 RUE DE LISBONNE",
      "geo_point_2d": [48.877751384, 2.31748647872],
      "nombre_de_borne_wifi": 1,
      "idpw": "PW0024",
      "geo_shape": {
        "type": "Point",
        "coordinates": [2.317486478723445, 48.8777513840169]
      },
      "etat2": "Op\u00e9rationnel"
    },
    "geometry": {
      "type": "Point",
      "coordinates": [2.31748647872, 48.877751384]
    },
    "record_timestamp": "2020-02-12T08:00:33.449+01:00"
  },
  {
    "datasetid": "sites-disposant-du-service-paris-wi-fi",
    "recordid": "88746d06eaa4570e780e6ddc915909fe4a4f1bb1",
    "fields": {
      "cp": "75009",
      "nom_site": "MAISON DE LA VIE ASSOCIATIVE ET CITOYENNE  9 ANNEXE",
      "arc_adresse": "35 RUE VICTOR MASSE",
      "geo_point_2d": [48.8809409831, 2.33701088306],
      "nombre_de_borne_wifi": 1,
      "idpw": "PW0038",
      "geo_shape": {
        "type": "Point",
        "coordinates": [2.337010883062689, 48.88094098309762]
      },
      "etat2": "Op\u00e9rationnel"
    },
    "geometry": {
      "type": "Point",
      "coordinates": [2.33701088306, 48.8809409831]
    },
    "record_timestamp": "2020-02-12T08:00:33.449+01:00"
  },
  {
    "datasetid": "sites-disposant-du-service-paris-wi-fi",
    "recordid": "401baf1e1e0a29fa1e1ee7d3869fe3d616b54581",
    "fields": {
      "cp": "75009",
      "nom_site": "SQUARE D'ANVERS",
      "arc_adresse": "PLACE D'ANVERS",
      "geo_point_2d": [48.88231743, 2.34452051997],
      "nombre_de_borne_wifi": 1,
      "idpw": "PW0184",
      "geo_shape": {
        "type": "Point",
        "coordinates": [2.344520519971863, 48.88231742995314]
      },
      "etat2": "Op\u00e9rationnel"
    },
    "geometry": {
      "type": "Point",
      "coordinates": [2.34452051997, 48.88231743]
    },
    "record_timestamp": "2020-02-12T08:00:33.449+01:00"
  },
  {
    "datasetid": "sites-disposant-du-service-paris-wi-fi",
    "recordid": "be0cbe6c2a1734b7651e2b3a10d62d90b49665da",
    "fields": {
      "cp": "75009",
      "nom_site": "BIBLIOTHEQUE VALEYRE",
      "arc_adresse": "24 RUE DE ROCHECHOUART",
      "geo_point_2d": [48.8779672649, 2.34502151234],
      "nombre_de_borne_wifi": 2,
      "idpw": "PW0142",
      "geo_shape": {
        "type": "Point",
        "coordinates": [2.34502151233773, 48.87796726487002]
      },
      "etat2": "Op\u00e9rationnel"
    },
    "geometry": {
      "type": "Point",
      "coordinates": [2.34502151234, 48.8779672649]
    },
    "record_timestamp": "2020-02-12T08:00:33.449+01:00"
  },
  {
    "datasetid": "sites-disposant-du-service-paris-wi-fi",
    "recordid": "d477473e8e91b3a753eb9f3fbddbb8fba25c1102",
    "fields": {
      "cp": "75009",
      "nom_site": "SQUARE MONTHOLON",
      "arc_adresse": "RUE LA FAYETTE",
      "geo_point_2d": [48.8769016573, 2.34640500313],
      "nombre_de_borne_wifi": 1,
      "idpw": "PW0186",
      "geo_shape": {
        "type": "Point",
        "coordinates": [2.346405003129445, 48.876901657285096]
      },
      "etat2": "Op\u00e9rationnel"
    },
    "geometry": {
      "type": "Point",
      "coordinates": [2.34640500313, 48.8769016573]
    },
    "record_timestamp": "2020-02-12T08:00:33.449+01:00"
  },
  {
    "datasetid": "sites-disposant-du-service-paris-wi-fi",
    "recordid": "a8559a0ecb39aba017b59296f5a688b697b2efff",
    "fields": {
      "cp": "75009",
      "nom_site": "MAISON DE LA VIE ASSOCIATIVE ET CITOYENNE  9",
      "arc_adresse": "54 RUE PIGALLE",
      "geo_point_2d": [48.8809781342, 2.33593661121],
      "nombre_de_borne_wifi": 1,
      "idpw": "PW0037",
      "geo_shape": {
        "type": "Point",
        "coordinates": [2.335936611209823, 48.88097813417975]
      },
      "etat2": "Op\u00e9rationnel"
    },
    "geometry": {
      "type": "Point",
      "coordinates": [2.33593661121, 48.8809781342]
    },
    "record_timestamp": "2020-02-12T08:00:33.449+01:00"
  },
  {
    "datasetid": "sites-disposant-du-service-paris-wi-fi",
    "recordid": "9452fa39e0d4b1c77de691e7e93496563d8266a4",
    "fields": {
      "cp": "75009",
      "nom_site": "SQUARE TRINITE D ESTIENNE D ORVES",
      "arc_adresse": "1 PLACE D ESTIENNES D ORVES",
      "geo_point_2d": [48.8765956695, 2.33179827521],
      "nombre_de_borne_wifi": 1,
      "idpw": "PW0176",
      "geo_shape": {
        "type": "Point",
        "coordinates": [2.331798275213253, 48.87659566954102]
      },
      "etat2": "Op\u00e9rationnel"
    },
    "geometry": {
      "type": "Point",
      "coordinates": [2.33179827521, 48.8765956695]
    },
    "record_timestamp": "2020-02-12T08:00:33.449+01:00"
  },
  {
    "datasetid": "sites-disposant-du-service-paris-wi-fi",
    "recordid": "349d192f9a57a443ea225dbd87d87b26329cb69b",
    "fields": {
      "cp": "75009",
      "nom_site": "BIBLIOTHEQUE DROUOT",
      "arc_adresse": "11 RUE DROUOT",
      "geo_point_2d": [48.8733902739, 2.34045205645],
      "nombre_de_borne_wifi": 1,
      "idpw": "PW0060",
      "geo_shape": {
        "type": "Point",
        "coordinates": [2.340452056446281, 48.87339027391681]
      },
      "etat2": "Op\u00e9rationnel"
    },
    "geometry": {
      "type": "Point",
      "coordinates": [2.34045205645, 48.8733902739]
    },
    "record_timestamp": "2020-02-12T08:00:33.449+01:00"
  },
  {
    "datasetid": "sites-disposant-du-service-paris-wi-fi",
    "recordid": "5f80fa6079cf2260687f708f8c55e9fa42eadd6b",
    "fields": {
      "cp": "75009",
      "nom_site": "BIBLIOTHEQUE CHAPTAL",
      "arc_adresse": "26 RUE CHAPTAL",
      "geo_point_2d": [48.8811113359, 2.33234555983],
      "nombre_de_borne_wifi": 2,
      "idpw": "PW0109",
      "geo_shape": {
        "type": "Point",
        "coordinates": [2.332345559826885, 48.881111335939714]
      },
      "etat2": "Op\u00e9rationnel"
    },
    "geometry": {
      "type": "Point",
      "coordinates": [2.33234555983, 48.8811113359]
    },
    "record_timestamp": "2020-02-12T08:00:33.449+01:00"
  },
  {
    "datasetid": "sites-disposant-du-service-paris-wi-fi",
    "recordid": "4c39cdce0bd02978fcec349d500ec43b4bc09902",
    "fields": {
      "cp": "75009",
      "nom_site": "MAIRIE DU 9 EME",
      "arc_adresse": "6 RUE DROUOT",
      "geo_point_2d": [48.8725916024, 2.34048060215],
      "nombre_de_borne_wifi": 1,
      "idpw": "PW0131",
      "geo_shape": {
        "type": "Point",
        "coordinates": [2.340480602150851, 48.872591602361176]
      },
      "etat2": "Op\u00e9rationnel"
    },
    "geometry": {
      "type": "Point",
      "coordinates": [2.34048060215, 48.8725916024]
    },
    "record_timestamp": "2020-02-12T08:00:33.449+01:00"
  },
  {
    "datasetid": "sites-disposant-du-service-paris-wi-fi",
    "recordid": "07e3907f8c8cc06c2fdbd5c80b19b3d7427f15e2",
    "fields": {
      "cp": "75010",
      "nom_site": "MAIRIE DU 10 EME",
      "arc_adresse": "72 RUE DU FAUBOURG SAINT MARTIN",
      "geo_point_2d": [48.8717845119, 2.35738264495],
      "nombre_de_borne_wifi": 3,
      "idpw": "PW0010",
      "geo_shape": {
        "type": "Point",
        "coordinates": [2.357382644948621, 48.87178451190305]
      },
      "etat2": "Op\u00e9rationnel"
    },
    "geometry": {
      "type": "Point",
      "coordinates": [2.35738264495, 48.8717845119]
    },
    "record_timestamp": "2020-02-12T08:00:33.449+01:00"
  },
  {
    "datasetid": "sites-disposant-du-service-paris-wi-fi",
    "recordid": "4004aa1055d83d855c99c01116194c3ded3ab750",
    "fields": {
      "cp": "75010",
      "nom_site": "MEDIATHEQUE FRANCOISE SAGAN",
      "arc_adresse": "8 RUE LEON SCHWARTZENBERG",
      "geo_point_2d": [48.8754298708, 2.35366677297],
      "nombre_de_borne_wifi": 11,
      "idpw": "PW0147",
      "geo_shape": {
        "type": "Point",
        "coordinates": [2.353666772968424, 48.87542987081136]
      },
      "etat2": "Op\u00e9rationnel"
    },
    "geometry": {
      "type": "Point",
      "coordinates": [2.35366677297, 48.8754298708]
    },
    "record_timestamp": "2020-02-12T08:00:33.449+01:00"
  },
  {
    "datasetid": "sites-disposant-du-service-paris-wi-fi",
    "recordid": "92bd3d5a338a5af01a409205d3edd271f413c6e7",
    "fields": {
      "cp": "75010",
      "nom_site": "BOURSE DU TRAVAIL",
      "arc_adresse": "3 RUE DU CHATEAU D EAU",
      "geo_point_2d": [48.8691054125, 2.36199740627],
      "nombre_de_borne_wifi": 3,
      "idpw": "PW0215",
      "geo_shape": {
        "type": "Point",
        "coordinates": [2.361997406270607, 48.86910541253627]
      },
      "etat2": "Op\u00e9rationnel"
    },
    "geometry": {
      "type": "Point",
      "coordinates": [2.36199740627, 48.8691054125]
    },
    "record_timestamp": "2020-02-12T08:00:33.449+01:00"
  },
  {
    "datasetid": "sites-disposant-du-service-paris-wi-fi",
    "recordid": "f1b51438b6cb67a9f87776bebaae11303519751b",
    "fields": {
      "cp": "75010",
      "nom_site": "JARDIN DES BERGES DU CANAL SAINT MARTIN",
      "arc_adresse": "150 QUAI DE VALMY",
      "geo_point_2d": [48.8801112154, 2.36720666871],
      "nombre_de_borne_wifi": 1,
      "idpw": "PW0194",
      "geo_shape": {
        "type": "Point",
        "coordinates": [2.367206668709812, 48.8801112154069]
      },
      "etat2": "Op\u00e9rationnel"
    },
    "geometry": {
      "type": "Point",
      "coordinates": [2.36720666871, 48.8801112154]
    },
    "record_timestamp": "2020-02-12T08:00:33.449+01:00"
  },
  {
    "datasetid": "sites-disposant-du-service-paris-wi-fi",
    "recordid": "0d4b7471ee4f5159cd6e50912e33512d8b091039",
    "fields": {
      "cp": "75010",
      "nom_site": "CENTRE SPORTIF DE LA GRANGE AUX BELLES",
      "arc_adresse": "17 RUE BOY ZELENSKI",
      "geo_point_2d": [48.8774306165, 2.36839034022],
      "nombre_de_borne_wifi": 1,
      "idpw": "PW0077",
      "geo_shape": {
        "type": "Point",
        "coordinates": [2.368390340217362, 48.877430616544906]
      },
      "etat2": "Op\u00e9rationnel"
    },
    "geometry": {
      "type": "Point",
      "coordinates": [2.36839034022, 48.8774306165]
    },
    "record_timestamp": "2020-02-12T08:00:33.449+01:00"
  },
  {
    "datasetid": "sites-disposant-du-service-paris-wi-fi",
    "recordid": "740385013c8f11a0263ea7539c1543ce1165e209",
    "fields": {
      "cp": "75010",
      "nom_site": "GYMNASE MARIE PARADIS",
      "arc_adresse": "11 SQUARE ALBAN SATRAGNE",
      "geo_point_2d": [48.8754539407, 2.35524842818],
      "nombre_de_borne_wifi": 1,
      "idpw": "PW0097",
      "geo_shape": {
        "type": "Point",
        "coordinates": [2.355248428182183, 48.87545394069122]
      },
      "etat2": "Op\u00e9rationnel"
    },
    "geometry": {
      "type": "Point",
      "coordinates": [2.35524842818, 48.8754539407]
    },
    "record_timestamp": "2020-02-12T08:00:33.449+01:00"
  },
  {
    "datasetid": "sites-disposant-du-service-paris-wi-fi",
    "recordid": "9fd0497bbba484ec9c29d9e1ef6097bf4cdc4aac",
    "fields": {
      "cp": "75010",
      "nom_site": "SQUARE FREDERIC LEMAITRE",
      "arc_adresse": "35 QUAI DE JEMMAPES",
      "geo_point_2d": [48.8788386316, 2.36711233025],
      "nombre_de_borne_wifi": 1,
      "idpw": "PW0197",
      "geo_shape": {
        "type": "Point",
        "coordinates": [2.367112330251715, 48.878838631646886]
      },
      "etat2": "Op\u00e9rationnel"
    },
    "geometry": {
      "type": "Point",
      "coordinates": [2.36711233025, 48.8788386316]
    },
    "record_timestamp": "2020-02-12T08:00:33.449+01:00"
  },
  {
    "datasetid": "sites-disposant-du-service-paris-wi-fi",
    "recordid": "209c96106e1757c454fae969f2323d0439c5cbce",
    "fields": {
      "cp": "75010",
      "nom_site": "JARDIN VILLEMIN",
      "arc_adresse": "8 RUE DES RECOLLETS",
      "geo_point_2d": [48.8744988283, 2.36190493854],
      "nombre_de_borne_wifi": 2,
      "idpw": "PW0164",
      "geo_shape": {
        "type": "Point",
        "coordinates": [2.361904938537223, 48.874498828303075]
      },
      "etat2": "Op\u00e9rationnel"
    },
    "geometry": {
      "type": "Point",
      "coordinates": [2.36190493854, 48.8744988283]
    },
    "record_timestamp": "2020-02-12T08:00:33.449+01:00"
  },
  {
    "datasetid": "sites-disposant-du-service-paris-wi-fi",
    "recordid": "f37911b9646a38622651aa9b8f75eca141f15142",
    "fields": {
      "cp": "75010",
      "nom_site": "BIBLIOTHEQUE FRANCOIS VILLON",
      "arc_adresse": "81 BOULEVARD DE LA VILLETTE",
      "geo_point_2d": [48.8772054342, 2.37079691969],
      "nombre_de_borne_wifi": 2,
      "idpw": "PW0116",
      "geo_shape": {
        "type": "Point",
        "coordinates": [2.37079691969116, 48.877205434154426]
      },
      "etat2": "Op\u00e9rationnel"
    },
    "geometry": {
      "type": "Point",
      "coordinates": [2.37079691969, 48.8772054342]
    },
    "record_timestamp": "2020-02-12T08:00:33.449+01:00"
  },
  {
    "datasetid": "sites-disposant-du-service-paris-wi-fi",
    "recordid": "47d5a463b4b78cc824bc230345643dd78772fc4a",
    "fields": {
      "cp": "75010",
      "nom_site": "SQUARE DES RECOLLETS",
      "arc_adresse": "88 QUAI DE VALMY",
      "geo_point_2d": [48.8732040203, 2.36361161798],
      "nombre_de_borne_wifi": 1,
      "idpw": "PW0210",
      "geo_shape": {
        "type": "Point",
        "coordinates": [2.363611617977898, 48.87320402026159]
      },
      "etat2": "Op\u00e9rationnel"
    },
    "geometry": {
      "type": "Point",
      "coordinates": [2.36361161798, 48.8732040203]
    },
    "record_timestamp": "2020-02-12T08:00:33.449+01:00"
  },
  {
    "datasetid": "sites-disposant-du-service-paris-wi-fi",
    "recordid": "0ee49cd420dbad4e10101fee39792003d5fd6f77",
    "fields": {
      "cp": "75010",
      "nom_site": "MAISON DE LA VIE ASSOCIATIVE ET CITOYENNE  10",
      "arc_adresse": "206 QUAI DE VALMY",
      "geo_point_2d": [48.8817841102, 2.36872006696],
      "nombre_de_borne_wifi": 1,
      "idpw": "PW0028",
      "geo_shape": {
        "type": "Point",
        "coordinates": [2.368720066964892, 48.88178411021711]
      },
      "etat2": "Op\u00e9rationnel"
    },
    "geometry": {
      "type": "Point",
      "coordinates": [2.36872006696, 48.8817841102]
    },
    "record_timestamp": "2020-02-12T08:00:33.449+01:00"
  },
  {
    "datasetid": "sites-disposant-du-service-paris-wi-fi",
    "recordid": "13316e09bc06e9ca052812fec917c1431c16bd86",
    "fields": {
      "cp": "75011",
      "nom_site": "MAISON DE LA VIE ASSOCIATIVE ET CITOYENNE  11",
      "arc_adresse": "8 RUE DU GENERAL RENAULT",
      "geo_point_2d": [48.8612659255, 2.37850247568],
      "nombre_de_borne_wifi": 2,
      "idpw": "PW0029",
      "geo_shape": {
        "type": "Point",
        "coordinates": [2.378502475675964, 48.861265925542334]
      },
      "etat2": "Op\u00e9rationnel"
    },
    "geometry": {
      "type": "Point",
      "coordinates": [2.37850247568, 48.8612659255]
    },
    "record_timestamp": "2020-02-12T08:00:33.449+01:00"
  },
  {
    "datasetid": "sites-disposant-du-service-paris-wi-fi",
    "recordid": "d1d5a601726487a82e44f279480ed849607d7f6d",
    "fields": {
      "cp": "75011",
      "nom_site": "SQUARE JEAN AICARD",
      "arc_adresse": "5 AVENUE JEAN AICARD",
      "geo_point_2d": [48.8649086244, 2.38127231697],
      "nombre_de_borne_wifi": 1,
      "idpw": "PW0152",
      "geo_shape": {
        "type": "Point",
        "coordinates": [2.381272316972541, 48.864908624429034]
      },
      "etat2": "Op\u00e9rationnel"
    },
    "geometry": {
      "type": "Point",
      "coordinates": [2.38127231697, 48.8649086244]
    },
    "record_timestamp": "2020-02-12T08:00:33.449+01:00"
  },
  {
    "datasetid": "sites-disposant-du-service-paris-wi-fi",
    "recordid": "6456d57e214bc1fd55e4e937e896dcd39d46356d",
    "fields": {
      "cp": "75011",
      "nom_site": "SQUARE ORILLON JULES VERNES",
      "arc_adresse": "19B RUE DE L ORILLON",
      "geo_point_2d": [48.8698926807, 2.37511728428],
      "nombre_de_borne_wifi": 1,
      "idpw": "PW0056",
      "geo_shape": {
        "type": "Point",
        "coordinates": [2.375117284276381, 48.86989268070317]
      },
      "etat2": "Op\u00e9rationnel"
    },
    "geometry": {
      "type": "Point",
      "coordinates": [2.37511728428, 48.8698926807]
    },
    "record_timestamp": "2020-02-12T08:00:33.449+01:00"
  },
  {
    "datasetid": "sites-disposant-du-service-paris-wi-fi",
    "recordid": "b83d7fccfcce6c4c52d855220ec550ff2726d846",
    "fields": {
      "cp": "75011",
      "nom_site": "SQUARE MAURICE GARDETTE",
      "arc_adresse": "2 RUE DU GENERAL BLAISE RUE LACHARRIERE",
      "geo_point_2d": [48.8610851934, 2.37907251705],
      "nombre_de_borne_wifi": 1,
      "idpw": "PW0205",
      "geo_shape": {
        "type": "Point",
        "coordinates": [2.379072517053181, 48.86108519335692]
      },
      "etat2": "Op\u00e9rationnel"
    },
    "geometry": {
      "type": "Point",
      "coordinates": [2.37907251705, 48.8610851934]
    },
    "record_timestamp": "2020-02-12T08:00:33.449+01:00"
  },
  {
    "datasetid": "sites-disposant-du-service-paris-wi-fi",
    "recordid": "46914feb0ec3ef5522f0d4cff01809b44aee7fc3",
    "fields": {
      "cp": "75011",
      "nom_site": "GYMNASE JAPY",
      "arc_adresse": "2 RUE JAPY",
      "geo_point_2d": [48.8558714122, 2.38245353583],
      "nombre_de_borne_wifi": 1,
      "idpw": "PW0096",
      "geo_shape": {
        "type": "Point",
        "coordinates": [2.382453535830383, 48.85587141220044]
      },
      "etat2": "Op\u00e9rationnel"
    },
    "geometry": {
      "type": "Point",
      "coordinates": [2.38245353583, 48.8558714122]
    },
    "record_timestamp": "2020-02-12T08:00:33.449+01:00"
  },
  {
    "datasetid": "sites-disposant-du-service-paris-wi-fi",
    "recordid": "01a85c4a0fb283bc0fda4577bee5b8e380e827f3",
    "fields": {
      "cp": "75011",
      "nom_site": "PROMENADE RICHARD LENOIR",
      "arc_adresse": "67 BOULEVARD RICHARD LENOIR",
      "geo_point_2d": [48.8605127941, 2.37222141682],
      "nombre_de_borne_wifi": 1,
      "idpw": "PW0206",
      "geo_shape": {
        "type": "Point",
        "coordinates": [2.372221416816595, 48.860512794097644]
      },
      "etat2": "Op\u00e9rationnel"
    },
    "geometry": {
      "type": "Point",
      "coordinates": [2.37222141682, 48.8605127941]
    },
    "record_timestamp": "2020-02-12T08:00:33.449+01:00"
  },
  {
    "datasetid": "sites-disposant-du-service-paris-wi-fi",
    "recordid": "5d35f598b51afd3e9773ea0a33c83001e3274a8f",
    "fields": {
      "cp": "75011",
      "nom_site": "CENTRE SPORTIF GEORGES RIGAL",
      "arc_adresse": "115 BOULEVARD DE CHARONNE",
      "geo_point_2d": [48.8566034181, 2.39386877243],
      "nombre_de_borne_wifi": 1,
      "idpw": "PW0080",
      "geo_shape": {
        "type": "Point",
        "coordinates": [2.393868772427969, 48.85660341812767]
      },
      "etat2": "Op\u00e9rationnel"
    },
    "geometry": {
      "type": "Point",
      "coordinates": [2.39386877243, 48.8566034181]
    },
    "record_timestamp": "2020-02-12T08:00:33.449+01:00"
  },
  {
    "datasetid": "sites-disposant-du-service-paris-wi-fi",
    "recordid": "b8a0dc317c201b8c96993f7a7f57af2c3510b1c5",
    "fields": {
      "cp": "75011",
      "nom_site": "CENTRE SPORTIF COUR DES LIONS",
      "arc_adresse": "9-11 RUE ALPHONSE BAUDIN",
      "geo_point_2d": [48.8606741278, 2.37034386692],
      "nombre_de_borne_wifi": 1,
      "idpw": "PW0076",
      "geo_shape": {
        "type": "Point",
        "coordinates": [2.370343866923958, 48.86067412777188]
      },
      "etat2": "Op\u00e9rationnel"
    },
    "geometry": {
      "type": "Point",
      "coordinates": [2.37034386692, 48.8606741278]
    },
    "record_timestamp": "2020-02-12T08:00:33.449+01:00"
  },
  {
    "datasetid": "sites-disposant-du-service-paris-wi-fi",
    "recordid": "2d3c211dc0359ff64c47c0395ed1596d3f5df893",
    "fields": {
      "cp": "75011",
      "nom_site": "SQUARE COLBERT",
      "arc_adresse": "159 RUE DE CHARONNE",
      "geo_point_2d": [48.8555919367, 2.38959554225],
      "nombre_de_borne_wifi": 1,
      "idpw": "PW0160",
      "geo_shape": {
        "type": "Point",
        "coordinates": [2.389595542248922, 48.855591936732615]
      },
      "etat2": "Op\u00e9rationnel"
    },
    "geometry": {
      "type": "Point",
      "coordinates": [2.38959554225, 48.8555919367]
    },
    "record_timestamp": "2020-02-12T08:00:33.449+01:00"
  },
  {
    "datasetid": "sites-disposant-du-service-paris-wi-fi",
    "recordid": "e5b516635773db94a507a377f04e799c49cb62bc",
    "fields": {
      "cp": "75011",
      "nom_site": "MAIRIE DU 11 EME",
      "arc_adresse": "2 PLACE LEON BLUM",
      "geo_point_2d": [48.8580799315, 2.38100340048],
      "nombre_de_borne_wifi": 1,
      "idpw": "PW0011",
      "geo_shape": {
        "type": "Point",
        "coordinates": [2.381003400476269, 48.85807993154853]
      },
      "etat2": "Op\u00e9rationnel"
    },
    "geometry": {
      "type": "Point",
      "coordinates": [2.38100340048, 48.8580799315]
    },
    "record_timestamp": "2020-02-12T08:00:33.449+01:00"
  },
  {
    "datasetid": "sites-disposant-du-service-paris-wi-fi",
    "recordid": "bf0b8af3e5af6e5b969495ac9202dd7dc735b11d",
    "fields": {
      "cp": "75011",
      "nom_site": "MEDIATHEQUE VIOLETTE LEDUC",
      "arc_adresse": "18 RUE FAIDHERBE",
      "geo_point_2d": [48.8515955528, 2.38396007097],
      "nombre_de_borne_wifi": 4,
      "idpw": "PW0049",
      "geo_shape": {
        "type": "Point",
        "coordinates": [2.383960070968056, 48.851595552840706]
      },
      "etat2": "Op\u00e9rationnel"
    },
    "geometry": {
      "type": "Point",
      "coordinates": [2.38396007097, 48.8515955528]
    },
    "record_timestamp": "2020-02-12T08:00:33.449+01:00"
  },
  {
    "datasetid": "sites-disposant-du-service-paris-wi-fi",
    "recordid": "2ed87c18ce47b2799251f6a4068f789aedbc4da1",
    "fields": {
      "cp": "75011",
      "nom_site": "SQUARE LA PETITE ROQUETTE",
      "arc_adresse": "4 RUE SERVAN - SQUARE DE LA ROQUETTE",
      "geo_point_2d": [48.8591243675, 2.38418763308],
      "nombre_de_borne_wifi": 1,
      "idpw": "PW0068",
      "geo_shape": {
        "type": "Point",
        "coordinates": [2.384187633080559, 48.859124367471004]
      },
      "etat2": "Op\u00e9rationnel"
    },
    "geometry": {
      "type": "Point",
      "coordinates": [2.38418763308, 48.8591243675]
    },
    "record_timestamp": "2020-02-12T08:00:33.449+01:00"
  },
  {
    "datasetid": "sites-disposant-du-service-paris-wi-fi",
    "recordid": "c8e9c538b4417e9035da82b42151192d1854f9b2",
    "fields": {
      "cp": "75011",
      "nom_site": "SQUARE DES JARDINIERS",
      "arc_adresse": "2 PASSAGE DUMAS",
      "geo_point_2d": [48.8520900215, 2.39025008686],
      "nombre_de_borne_wifi": 1,
      "idpw": "PW0203",
      "geo_shape": {
        "type": "Point",
        "coordinates": [2.390250086858032, 48.85209002148713]
      },
      "etat2": "Op\u00e9rationnel"
    },
    "geometry": {
      "type": "Point",
      "coordinates": [2.39025008686, 48.8520900215]
    },
    "record_timestamp": "2020-02-12T08:00:33.449+01:00"
  },
  {
    "datasetid": "sites-disposant-du-service-paris-wi-fi",
    "recordid": "334ff9b74a432691063b8af7ca20b6f4cd5d81a7",
    "fields": {
      "cp": "75011",
      "nom_site": "SQUARE BREGUET SABIN",
      "arc_adresse": "25 BOULEVARD RICHARD LENOIR",
      "geo_point_2d": [48.8570974891, 2.3704796611],
      "nombre_de_borne_wifi": 2,
      "idpw": "PW0177",
      "geo_shape": {
        "type": "Point",
        "coordinates": [2.370479661100423, 48.8570974891207]
      },
      "etat2": "Op\u00e9rationnel"
    },
    "geometry": {
      "type": "Point",
      "coordinates": [2.3704796611, 48.8570974891]
    },
    "record_timestamp": "2020-02-12T08:00:33.449+01:00"
  },
  {
    "datasetid": "sites-disposant-du-service-paris-wi-fi",
    "recordid": "b26032ef84c1586757652900a1c45781f7af9120",
    "fields": {
      "cp": "75011",
      "nom_site": "BIBLIOTHEQUE PARMENTIER",
      "arc_adresse": "20 AVENUE PARMENTIER",
      "geo_point_2d": [48.860096294, 2.3790349615],
      "nombre_de_borne_wifi": 1,
      "idpw": "PW0052",
      "geo_shape": {
        "type": "Point",
        "coordinates": [2.379034961498105, 48.86009629404829]
      },
      "etat2": "Op\u00e9rationnel"
    },
    "geometry": {
      "type": "Point",
      "coordinates": [2.3790349615, 48.860096294]
    },
    "record_timestamp": "2020-02-12T08:00:33.449+01:00"
  },
  {
    "datasetid": "sites-disposant-du-service-paris-wi-fi",
    "recordid": "a2f581adaa0ba092305877ec1c9eb282f2419811",
    "fields": {
      "cp": "75012",
      "nom_site": "CENTRE PARIS ANIM'MAURICE RAVEL",
      "arc_adresse": "6 RUE MAURICE RAVEL",
      "geo_point_2d": [48.8418039259, 2.41166835606],
      "nombre_de_borne_wifi": 1,
      "geo_shape": {
        "type": "Point",
        "coordinates": [2.411668356058278, 48.84180392592806]
      },
      "etat2": "En \u00e9tude"
    },
    "geometry": {
      "type": "Point",
      "coordinates": [2.41166835606, 48.8418039259]
    },
    "record_timestamp": "2020-02-12T08:00:33.449+01:00"
  },
  {
    "datasetid": "sites-disposant-du-service-paris-wi-fi",
    "recordid": "e55681c487b47c7f5a63dfe701451f6970bf7658",
    "fields": {
      "cp": "75012",
      "nom_site": "BIBLIOTHEQUE SAINT ELOI",
      "arc_adresse": "23 RUE DU COLONEL ROZANOFF",
      "geo_point_2d": [48.8455291572, 2.38711098608],
      "nombre_de_borne_wifi": 2,
      "idpw": "PW0141",
      "geo_shape": {
        "type": "Point",
        "coordinates": [2.387110986075708, 48.84552915718272]
      },
      "etat2": "Op\u00e9rationnel"
    },
    "geometry": {
      "type": "Point",
      "coordinates": [2.38711098608, 48.8455291572]
    },
    "record_timestamp": "2020-02-12T08:00:33.449+01:00"
  },
  {
    "datasetid": "sites-disposant-du-service-paris-wi-fi",
    "recordid": "4dbe7ee61af80c2464118d87089d1eaeb861e3d9",
    "fields": {
      "cp": "75012",
      "nom_site": "PISCINE JEAN BOITEUX",
      "arc_adresse": "13 RUE ANTOINE JULIEN HENARD",
      "geo_point_2d": [48.8421472127, 2.38939778901],
      "nombre_de_borne_wifi": 1,
      "idpw": "PW0106",
      "geo_shape": {
        "type": "Point",
        "coordinates": [2.389397789011499, 48.842147212693675]
      },
      "etat2": "Op\u00e9rationnel"
    },
    "geometry": {
      "type": "Point",
      "coordinates": [2.38939778901, 48.8421472127]
    },
    "record_timestamp": "2020-02-12T08:00:33.449+01:00"
  },
  {
    "datasetid": "sites-disposant-du-service-paris-wi-fi",
    "recordid": "11c511a3ba1b38f4b6db5691b96d64ced6f06c3d",
    "fields": {
      "cp": "75012",
      "nom_site": "BIBLIOTHEQUE HELENE BERR",
      "arc_adresse": "70 RUE DE PICPUS",
      "geo_point_2d": [48.8425411215, 2.39747688968],
      "nombre_de_borne_wifi": 4,
      "idpw": "PW0051",
      "geo_shape": {
        "type": "Point",
        "coordinates": [2.397476889678179, 48.84254112148939]
      },
      "etat2": "Op\u00e9rationnel"
    },
    "geometry": {
      "type": "Point",
      "coordinates": [2.39747688968, 48.8425411215]
    },
    "record_timestamp": "2020-02-12T08:00:33.449+01:00"
  },
  {
    "datasetid": "sites-disposant-du-service-paris-wi-fi",
    "recordid": "fb00857caf1ecf2da79243a1fb1308967f581ef9",
    "fields": {
      "cp": "75012",
      "nom_site": "CENTRE SPORTIF PAUL VALERY",
      "arc_adresse": "15 RUE DE LA NOUVELLE CALEDONIE",
      "geo_point_2d": [48.8380025291, 2.41042916157],
      "nombre_de_borne_wifi": 1,
      "idpw": "PW0087",
      "geo_shape": {
        "type": "Point",
        "coordinates": [2.410429161569746, 48.83800252906541]
      },
      "etat2": "Op\u00e9rationnel"
    },
    "geometry": {
      "type": "Point",
      "coordinates": [2.41042916157, 48.8380025291]
    },
    "record_timestamp": "2020-02-12T08:00:33.449+01:00"
  },
  {
    "datasetid": "sites-disposant-du-service-paris-wi-fi",
    "recordid": "77e98948c452de33f5711e745d929e9ededc1a60",
    "fields": {
      "cp": "75012",
      "nom_site": "PARC DE BERCY (MAISON DU LAC)",
      "arc_adresse": "1 COUR CHAMONARD",
      "geo_point_2d": [48.8350786407, 2.38453222624],
      "nombre_de_borne_wifi": 1,
      "idpw": "PW0058-1",
      "geo_shape": {
        "type": "Point",
        "coordinates": [2.384532226240481, 48.83507864071957]
      },
      "etat2": "Op\u00e9rationnel"
    },
    "geometry": {
      "type": "Point",
      "coordinates": [2.38453222624, 48.8350786407]
    },
    "record_timestamp": "2020-02-12T08:00:33.449+01:00"
  },
  {
    "datasetid": "sites-disposant-du-service-paris-wi-fi",
    "recordid": "b4e35085e35573db539b8ce5ee685b59316a2839",
    "fields": {
      "cp": "75012",
      "nom_site": "BIBLIOTHEQUE DIDEROT",
      "arc_adresse": "42 AVENUE DAUMESNIL",
      "geo_point_2d": [48.8459667166, 2.37771613956],
      "nombre_de_borne_wifi": 1,
      "idpw": "PW0135",
      "geo_shape": {
        "type": "Point",
        "coordinates": [2.377716139560769, 48.84596671657269]
      },
      "etat2": "Op\u00e9rationnel"
    },
    "geometry": {
      "type": "Point",
      "coordinates": [2.37771613956, 48.8459667166]
    },
    "record_timestamp": "2020-02-12T08:00:33.449+01:00"
  },
  {
    "datasetid": "sites-disposant-du-service-paris-wi-fi",
    "recordid": "fdd3a66bf36889606c1afea65303d1a5bfdeebec",
    "fields": {
      "cp": "75012",
      "nom_site": "CENTRE SPORTIF LEON MOTTOT",
      "arc_adresse": "17 CITE MOYNET",
      "geo_point_2d": [48.8438656929, 2.3866294954],
      "nombre_de_borne_wifi": 1,
      "idpw": "PW0086",
      "geo_shape": {
        "type": "Point",
        "coordinates": [2.386629495395026, 48.8438656928756]
      },
      "etat2": "Op\u00e9rationnel"
    },
    "geometry": {
      "type": "Point",
      "coordinates": [2.3866294954, 48.8438656929]
    },
    "record_timestamp": "2020-02-12T08:00:33.449+01:00"
  },
  {
    "datasetid": "sites-disposant-du-service-paris-wi-fi",
    "recordid": "ad8426ea6c38d227967a4d2c4a90d521aeef7bf2",
    "fields": {
      "cp": "75012",
      "nom_site": "CENTRE SPORTIF LEO LAGRANGE",
      "arc_adresse": "68 BOULEVARD PONIATOWSKI",
      "geo_point_2d": [48.8321648675, 2.39933433594],
      "nombre_de_borne_wifi": 1,
      "idpw": "PW0084",
      "geo_shape": {
        "type": "Point",
        "coordinates": [2.399334335935606, 48.8321648675282]
      },
      "etat2": "Op\u00e9rationnel"
    },
    "geometry": {
      "type": "Point",
      "coordinates": [2.39933433594, 48.8321648675]
    },
    "record_timestamp": "2020-02-12T08:00:33.449+01:00"
  },
  {
    "datasetid": "sites-disposant-du-service-paris-wi-fi",
    "recordid": "8bf21be6223682fdb8bcc3f8eaaf3eed153331ef",
    "fields": {
      "cp": "75012",
      "nom_site": "MAIRIE DU 12 EME",
      "arc_adresse": "130 AVENUE DAUMESNIL",
      "geo_point_2d": [48.8411040785, 2.3883374877],
      "nombre_de_borne_wifi": 1,
      "idpw": "PW0012",
      "geo_shape": {
        "type": "Point",
        "coordinates": [2.388337487704945, 48.841104078480036]
      },
      "etat2": "Op\u00e9rationnel"
    },
    "geometry": {
      "type": "Point",
      "coordinates": [2.3883374877, 48.8411040785]
    },
    "record_timestamp": "2020-02-12T08:00:33.449+01:00"
  },
  {
    "datasetid": "sites-disposant-du-service-paris-wi-fi",
    "recordid": "5498e8c47476e600e1185d35b8ca02f1ab12f9b6",
    "fields": {
      "cp": "75012",
      "nom_site": "PARC DE BERCY (ORANGERIE)",
      "arc_adresse": "1 COUR CHAMONARD",
      "geo_point_2d": [48.836091766, 2.38325225953],
      "nombre_de_borne_wifi": 2,
      "idpw": "PW0058-2",
      "geo_shape": {
        "type": "Point",
        "coordinates": [2.383252259533802, 48.836091766026286]
      },
      "etat2": "Op\u00e9rationnel"
    },
    "geometry": {
      "type": "Point",
      "coordinates": [2.38325225953, 48.836091766]
    },
    "record_timestamp": "2020-02-12T08:00:33.449+01:00"
  },
  {
    "datasetid": "sites-disposant-du-service-paris-wi-fi",
    "recordid": "448a087a605f82a4cd082f3dd13d08a8c4eeb0d3",
    "fields": {
      "cp": "75012",
      "nom_site": "PARC FLORAL",
      "arc_adresse": "ROUTE DE LA PYRAMIDE",
      "geo_point_2d": [48.8401255449, 2.43983524718],
      "nombre_de_borne_wifi": 5,
      "idpw": "PW0200",
      "geo_shape": {
        "type": "Point",
        "coordinates": [2.439835247184326, 48.840125544936114]
      },
      "etat2": "Op\u00e9rationnel"
    },
    "geometry": {
      "type": "Point",
      "coordinates": [2.43983524718, 48.8401255449]
    },
    "record_timestamp": "2020-02-12T08:00:33.449+01:00"
  },
  {
    "datasetid": "sites-disposant-du-service-paris-wi-fi",
    "recordid": "ab2223d4fd2fc868dfb52b52781939e713403480",
    "fields": {
      "cp": "75012",
      "nom_site": "PARC DE BERCY (TERRASSE BERCY)",
      "arc_adresse": "1 COUR CHAMONARD",
      "geo_point_2d": [48.8368107135, 2.3823502437],
      "nombre_de_borne_wifi": 2,
      "idpw": "PW0058-3",
      "geo_shape": {
        "type": "Point",
        "coordinates": [2.382350243699965, 48.83681071348854]
      },
      "etat2": "Op\u00e9rationnel"
    },
    "geometry": {
      "type": "Point",
      "coordinates": [2.3823502437, 48.8368107135]
    },
    "record_timestamp": "2020-02-12T08:00:33.449+01:00"
  },
  {
    "datasetid": "sites-disposant-du-service-paris-wi-fi",
    "recordid": "9d9f7f4fbc699bf27321ccb308f9fd977736b246",
    "fields": {
      "cp": "75012",
      "nom_site": "ESPACE REUILLY",
      "arc_adresse": "21 RUE ANTOINE JULIEN HENARD",
      "geo_point_2d": [48.8425186203, 2.38963308439],
      "nombre_de_borne_wifi": 3,
      "idpw": "PW0222",
      "geo_shape": {
        "type": "Point",
        "coordinates": [2.389633084390788, 48.84251862032188]
      },
      "etat2": "Op\u00e9rationnel"
    },
    "geometry": {
      "type": "Point",
      "coordinates": [2.38963308439, 48.8425186203]
    },
    "record_timestamp": "2020-02-12T08:00:33.449+01:00"
  },
  {
    "datasetid": "sites-disposant-du-service-paris-wi-fi",
    "recordid": "774176f9dd51e77c3681eb424b6f0e5eb9ddc6e7",
    "fields": {
      "cp": "75012",
      "nom_site": "GYMNASE REUILLY",
      "arc_adresse": "11 RUE ANTOINE JULIEN HENARD",
      "geo_point_2d": [48.8417054788, 2.38917144192],
      "nombre_de_borne_wifi": 1,
      "idpw": "PW0099",
      "geo_shape": {
        "type": "Point",
        "coordinates": [2.389171441921968, 48.84170547884535]
      },
      "etat2": "Op\u00e9rationnel"
    },
    "geometry": {
      "type": "Point",
      "coordinates": [2.38917144192, 48.8417054788]
    },
    "record_timestamp": "2020-02-12T08:00:33.449+01:00"
  },
  {
    "datasetid": "sites-disposant-du-service-paris-wi-fi",
    "recordid": "ca40c7fb788afd249655ca4e328f0c38d0d61967",
    "fields": {
      "cp": "75012",
      "nom_site": "COULEE VERTE - BASTILLE",
      "arc_adresse": "38 AVENUE DAUMESNIL",
      "geo_point_2d": [48.847183089, 2.37641951695],
      "nombre_de_borne_wifi": 1,
      "idpw": "PW0216",
      "geo_shape": {
        "type": "Point",
        "coordinates": [2.376419516945574, 48.84718308901555]
      },
      "etat2": "Op\u00e9rationnel"
    },
    "geometry": {
      "type": "Point",
      "coordinates": [2.37641951695, 48.847183089]
    },
    "record_timestamp": "2020-02-12T08:00:33.449+01:00"
  },
  {
    "datasetid": "sites-disposant-du-service-paris-wi-fi",
    "recordid": "66304b68dfff3c5f1d5565650830a11836c55459",
    "fields": {
      "cp": "75012",
      "nom_site": "DIR SYSTEMES INFORMATION ET NUMERIQUE",
      "arc_adresse": "227 RUE DE BERCY",
      "geo_point_2d": [48.8464756456, 2.36970554709],
      "nombre_de_borne_wifi": 2,
      "idpw": "PW0999",
      "geo_shape": {
        "type": "Point",
        "coordinates": [2.369705547091575, 48.846475645558336]
      },
      "etat2": "Op\u00e9rationnel"
    },
    "geometry": {
      "type": "Point",
      "coordinates": [2.36970554709, 48.8464756456]
    },
    "record_timestamp": "2020-02-12T08:00:33.449+01:00"
  },
  {
    "datasetid": "sites-disposant-du-service-paris-wi-fi",
    "recordid": "7d5f2b4c1a0ab6ac48613ddb1cabae92ceb68887",
    "fields": {
      "cp": "75012",
      "nom_site": "ACTIVITES ARTISANALES ET CREATION DU 12EME",
      "arc_adresse": "30 RUE DU FAUBOURG SAINT ANTOINE",
      "geo_point_2d": [48.8524066125, 2.37164543506],
      "nombre_de_borne_wifi": 3,
      "idpw": "PW0120",
      "geo_shape": {
        "type": "Point",
        "coordinates": [2.371645435064271, 48.852406612488366]
      },
      "etat2": "Op\u00e9rationnel"
    },
    "geometry": {
      "type": "Point",
      "coordinates": [2.37164543506, 48.8524066125]
    },
    "record_timestamp": "2020-02-12T08:00:33.449+01:00"
  },
  {
    "datasetid": "sites-disposant-du-service-paris-wi-fi",
    "recordid": "87f4fa7964d388f6f150944076659485fe948942",
    "fields": {
      "cp": "75012",
      "nom_site": "PARC DE BERCY (JARDINAGE)",
      "arc_adresse": "1 COURS SAIT EMILION",
      "geo_point_2d": [48.8324189858, 2.3854831767],
      "nombre_de_borne_wifi": 1,
      "idpw": "PW0058",
      "geo_shape": {
        "type": "Point",
        "coordinates": [2.385483176701273, 48.83241898581484]
      },
      "etat2": "Op\u00e9rationnel"
    },
    "geometry": {
      "type": "Point",
      "coordinates": [2.3854831767, 48.8324189858]
    },
    "record_timestamp": "2020-02-12T08:00:33.449+01:00"
  },
  {
    "datasetid": "sites-disposant-du-service-paris-wi-fi",
    "recordid": "40e0407d48091851b6c6af6f3371b708f9a09ab0",
    "fields": {
      "cp": "75012",
      "nom_site": "COULEE VERTE - DAUMESNIL RAMBOUILLET",
      "arc_adresse": "AVENUE DAUMESNIL - COIN RUE RAMBOUILLET",
      "geo_point_2d": [48.8446762067, 2.38161576761],
      "nombre_de_borne_wifi": 1,
      "idpw": "PW0217",
      "geo_shape": {
        "type": "Point",
        "coordinates": [2.381615767605796, 48.84467620670815]
      },
      "etat2": "Op\u00e9rationnel"
    },
    "geometry": {
      "type": "Point",
      "coordinates": [2.38161576761, 48.8446762067]
    },
    "record_timestamp": "2020-02-12T08:00:33.449+01:00"
  },
  {
    "datasetid": "sites-disposant-du-service-paris-wi-fi",
    "recordid": "3b965b92ffbefbcf36e1e9e31ba63ac974f7ab56",
    "fields": {
      "cp": "75012",
      "nom_site": "MAISON DE LA VIE ASSOCIATIVE ET CITOYENNE 12",
      "arc_adresse": "181 AVENUE DAUMESNIL",
      "geo_point_2d": [48.8404878126, 2.39250677653],
      "nombre_de_borne_wifi": 6,
      "idpw": "PW0030",
      "geo_shape": {
        "type": "Point",
        "coordinates": [2.392506776531803, 48.84048781257586]
      },
      "etat2": "Op\u00e9rationnel"
    },
    "geometry": {
      "type": "Point",
      "coordinates": [2.39250677653, 48.8404878126]
    },
    "record_timestamp": "2020-02-12T08:00:33.449+01:00"
  },
  {
    "datasetid": "sites-disposant-du-service-paris-wi-fi",
    "recordid": "107ef4de4b48f17c5b15bd44332f2cb120f1567f",
    "fields": {
      "cp": "75013",
      "nom_site": "STADE CHARLETY",
      "arc_adresse": "99 BOULEVARD KELLERMANN",
      "geo_point_2d": [48.819334381, 2.34670165273],
      "nombre_de_borne_wifi": 6,
      "idpw": "PW0169",
      "geo_shape": {
        "type": "Point",
        "coordinates": [2.3467016527330182, 48.819334380975064]
      },
      "etat2": "Op\u00e9rationnel"
    },
    "geometry": {
      "type": "Point",
      "coordinates": [2.34670165273, 48.819334381]
    },
    "record_timestamp": "2020-02-12T08:00:33.449+01:00"
  },
  {
    "datasetid": "sites-disposant-du-service-paris-wi-fi",
    "recordid": "127a0d3dad5af9c0d74c554fa4a2259a2b85fe20",
    "fields": {
      "cp": "75013",
      "nom_site": "CENTRE SPORTIF DUNOIS",
      "arc_adresse": "70 RUE DUNOIS",
      "geo_point_2d": [48.8331703217, 2.36627858766],
      "nombre_de_borne_wifi": 1,
      "idpw": "PW0079",
      "geo_shape": {
        "type": "Point",
        "coordinates": [2.366278587662253, 48.83317032166053]
      },
      "etat2": "Op\u00e9rationnel"
    },
    "geometry": {
      "type": "Point",
      "coordinates": [2.36627858766, 48.8331703217]
    },
    "record_timestamp": "2020-02-12T08:00:33.449+01:00"
  },
  {
    "datasetid": "sites-disposant-du-service-paris-wi-fi",
    "recordid": "e0546df7d50a97458fffe60e906403a9909460ea",
    "fields": {
      "cp": "75013",
      "nom_site": "SQUARE DE LA RAFFINERIE SAY",
      "arc_adresse": "147 BOULEVARD VINCENT AURIOL",
      "geo_point_2d": [48.8325693774, 2.36204340104],
      "nombre_de_borne_wifi": 1,
      "idpw": "PW0174",
      "geo_shape": {
        "type": "Point",
        "coordinates": [2.3620434010445353, 48.83256937742215]
      },
      "etat2": "Op\u00e9rationnel"
    },
    "geometry": {
      "type": "Point",
      "coordinates": [2.36204340104, 48.8325693774]
    },
    "record_timestamp": "2020-02-12T08:00:33.449+01:00"
  },
  {
    "datasetid": "sites-disposant-du-service-paris-wi-fi",
    "recordid": "a0513e166a96c3794a05eed9097a8980337c1570",
    "fields": {
      "cp": "75013",
      "nom_site": "SQUARE GEORGES DUHAMEL",
      "arc_adresse": "RUE JEAN ANOUILH",
      "geo_point_2d": [48.8319158284, 2.37761188927],
      "nombre_de_borne_wifi": 1,
      "idpw": "PW0171",
      "geo_shape": {
        "type": "Point",
        "coordinates": [2.377611889269577, 48.83191582844804]
      },
      "etat2": "Op\u00e9rationnel"
    },
    "geometry": {
      "type": "Point",
      "coordinates": [2.37761188927, 48.8319158284]
    },
    "record_timestamp": "2020-02-12T08:00:33.449+01:00"
  },
  {
    "datasetid": "sites-disposant-du-service-paris-wi-fi",
    "recordid": "26c99d7bdc52e6bebb0da3f83048075ad4f94f1a",
    "fields": {
      "cp": "75013",
      "nom_site": "PERMIS DE CONSTRUIRE - USAGER",
      "arc_adresse": "6 PLACE LEVI STRAUSS",
      "geo_point_2d": [48.8304183053, 2.37528632402],
      "nombre_de_borne_wifi": 1,
      "idpw": "PW0223",
      "geo_shape": {
        "type": "Point",
        "coordinates": [2.37528632402452, 48.830418305303915]
      },
      "etat2": "Op\u00e9rationnel"
    },
    "geometry": {
      "type": "Point",
      "coordinates": [2.37528632402, 48.8304183053]
    },
    "record_timestamp": "2020-02-12T08:00:33.449+01:00"
  },
  {
    "datasetid": "sites-disposant-du-service-paris-wi-fi",
    "recordid": "9b135a12be0755ea87575315844c14ec600db565",
    "fields": {
      "cp": "75013",
      "nom_site": "BIBLIOTHEQUE ITALIE",
      "arc_adresse": "213 BOULEVARD VINCENT AURIOL",
      "geo_point_2d": [48.830786809, 2.35675447673],
      "nombre_de_borne_wifi": 1,
      "idpw": "PW0114",
      "geo_shape": {
        "type": "Point",
        "coordinates": [2.356754476729749, 48.830786809045556]
      },
      "etat2": "Op\u00e9rationnel"
    },
    "geometry": {
      "type": "Point",
      "coordinates": [2.35675447673, 48.830786809]
    },
    "record_timestamp": "2020-02-12T08:00:33.449+01:00"
  },
  {
    "datasetid": "sites-disposant-du-service-paris-wi-fi",
    "recordid": "718b5f2b5df1b8d94104d3058046bdfceb42dca5",
    "fields": {
      "cp": "75013",
      "nom_site": "CENTRE SPORTIF GEORGES CARPENTIER - BATIMENT TENNIS",
      "arc_adresse": "81 BOULEVARD MASSENA",
      "geo_point_2d": [48.8204906699, 2.3673087496],
      "nombre_de_borne_wifi": 1,
      "idpw": "PW0103-2",
      "geo_shape": {
        "type": "Point",
        "coordinates": [2.367308749603462, 48.82049066987803]
      },
      "etat2": "Op\u00e9rationnel"
    },
    "geometry": {
      "type": "Point",
      "coordinates": [2.3673087496, 48.8204906699]
    },
    "record_timestamp": "2020-02-12T08:00:33.449+01:00"
  },
  {
    "datasetid": "sites-disposant-du-service-paris-wi-fi",
    "recordid": "49613aa66ddeb775bedcc94606628e53d3233e58",
    "fields": {
      "cp": "75013",
      "nom_site": "SQUARE GUSTAVE MESUREUR",
      "arc_adresse": "105 RUE JEANNE D ARC",
      "geo_point_2d": [48.8338461546, 2.3627918953],
      "nombre_de_borne_wifi": 1,
      "idpw": "PW0178",
      "geo_shape": {
        "type": "Point",
        "coordinates": [2.362791895302856, 48.83384615455623]
      },
      "etat2": "Op\u00e9rationnel"
    },
    "geometry": {
      "type": "Point",
      "coordinates": [2.3627918953, 48.8338461546]
    },
    "record_timestamp": "2020-02-12T08:00:33.449+01:00"
  },
  {
    "datasetid": "sites-disposant-du-service-paris-wi-fi",
    "recordid": "5072e1711b998140ea37c7aa4c2ce6c76d37f605",
    "fields": {
      "cp": "75013",
      "nom_site": "SQUARE RENE LEGALL",
      "arc_adresse": "43 RUE CORVISART",
      "geo_point_2d": [48.8322068, 2.34741976643],
      "nombre_de_borne_wifi": 1,
      "idpw": "PW0069",
      "geo_shape": {
        "type": "Point",
        "coordinates": [2.347419766430832, 48.83220679997316]
      },
      "etat2": "Op\u00e9rationnel"
    },
    "geometry": { "type": "Point", "coordinates": [2.34741976643, 48.8322068] },
    "record_timestamp": "2020-02-12T08:00:33.449+01:00"
  },
  {
    "datasetid": "sites-disposant-du-service-paris-wi-fi",
    "recordid": "c2267934edfba298beeb7f7a7475faba2ada4562",
    "fields": {
      "cp": "75013",
      "nom_site": "SQUARE HENRI CADIOU",
      "arc_adresse": "69 BOULEVARD ARAGO",
      "geo_point_2d": [48.8346490481, 2.34222254283],
      "nombre_de_borne_wifi": 2,
      "idpw": "PW0172",
      "geo_shape": {
        "type": "Point",
        "coordinates": [2.342222542830242, 48.83464904809935]
      },
      "etat2": "Op\u00e9rationnel"
    },
    "geometry": {
      "type": "Point",
      "coordinates": [2.34222254283, 48.8346490481]
    },
    "record_timestamp": "2020-02-12T08:00:33.449+01:00"
  },
  {
    "datasetid": "sites-disposant-du-service-paris-wi-fi",
    "recordid": "1900c1a339ab902cce3c8ed336a8ed5eb5903391",
    "fields": {
      "cp": "75013",
      "nom_site": "STADE CHARLETY",
      "arc_adresse": "99 BOULEVARD KELLERMANN",
      "geo_point_2d": [48.8190213359, 2.34509522033],
      "nombre_de_borne_wifi": 5,
      "idpw": "PW0169-1",
      "geo_shape": {
        "type": "Point",
        "coordinates": [2.345095220326008, 48.81902133591854]
      },
      "etat2": "Op\u00e9rationnel"
    },
    "geometry": {
      "type": "Point",
      "coordinates": [2.34509522033, 48.8190213359]
    },
    "record_timestamp": "2020-02-12T08:00:33.449+01:00"
  },
  {
    "datasetid": "sites-disposant-du-service-paris-wi-fi",
    "recordid": "56006338f49e18d8f55cbfe822e55d2866ab1100",
    "fields": {
      "cp": "75013",
      "nom_site": "PROMENADE PISCINE JOSEPHINE BAKER",
      "arc_adresse": "QUAI FRANCOIS MAURIAC",
      "geo_point_2d": [48.836030316, 2.37589085119],
      "nombre_de_borne_wifi": 1,
      "geo_shape": {
        "type": "Point",
        "coordinates": [2.375890851188937, 48.83603031598058]
      },
      "etat2": "En \u00e9tude"
    },
    "geometry": {
      "type": "Point",
      "coordinates": [2.37589085119, 48.836030316]
    },
    "record_timestamp": "2020-02-12T08:00:33.449+01:00"
  },
  {
    "datasetid": "sites-disposant-du-service-paris-wi-fi",
    "recordid": "b98bdd0c03b0dd41bea41b85d48e71c541071b0a",
    "fields": {
      "cp": "75013",
      "nom_site": "SQUARE HELOISE ET ABELARD - PARIS NATURE MAISON DES 5 SENS",
      "arc_adresse": "22 RUE PIERRE GOURDAULT",
      "geo_point_2d": [48.8309190436, 2.37010695364],
      "nombre_de_borne_wifi": 1,
      "idpw": "PW0066",
      "geo_shape": {
        "type": "Point",
        "coordinates": [2.370106953637173, 48.83091904359557]
      },
      "etat2": "Op\u00e9rationnel"
    },
    "geometry": {
      "type": "Point",
      "coordinates": [2.37010695364, 48.8309190436]
    },
    "record_timestamp": "2020-02-12T08:00:33.449+01:00"
  },
  {
    "datasetid": "sites-disposant-du-service-paris-wi-fi",
    "recordid": "44e4e120513bf50bed06f8ce01a6f9740997f79e",
    "fields": {
      "cp": "75013",
      "nom_site": "BIBLIOTHEQUE MELVILLE ET MARGUERITE DURAND",
      "arc_adresse": "79 RUE NATIONALE",
      "geo_point_2d": [48.8267869711, 2.36643991184],
      "nombre_de_borne_wifi": 3,
      "idpw": "PW0221",
      "geo_shape": {
        "type": "Point",
        "coordinates": [2.366439911836686, 48.8267869710745]
      },
      "etat2": "Op\u00e9rationnel"
    },
    "geometry": {
      "type": "Point",
      "coordinates": [2.36643991184, 48.8267869711]
    },
    "record_timestamp": "2020-02-12T08:00:33.449+01:00"
  },
  {
    "datasetid": "sites-disposant-du-service-paris-wi-fi",
    "recordid": "de6b7b343a825677a7b3653f26753fe3e917bf47",
    "fields": {
      "cp": "75013",
      "nom_site": "PARC DE CHOISY",
      "arc_adresse": "160 AVENUE DE CHOISY",
      "geo_point_2d": [48.827750994, 2.35959561395],
      "nombre_de_borne_wifi": 2,
      "idpw": "PW0062",
      "geo_shape": {
        "type": "Point",
        "coordinates": [2.35959561394622, 48.82775099396245]
      },
      "etat2": "Op\u00e9rationnel"
    },